{"address":"Calle Matillas","bathrooms":1,"country":"es","detailedType":{"typology":"flat","subTypology":"studio"},"district":"Villa de Vallecas","exterior":true,"externalReference":"RP20201951080","floor":null,"has360":false,"has3DTour":false,"hasLift":false,"hasPlan":true,"hasStaging":false,"hasVideo":false,"latitude":40.3701548,"longitude":-3.6229901,"municipality":"Madrid","neighborhood":"Casco Hist\u00f3rico de Vallecas","newDevelopment":false,"numPhotos":8,"operation":"sale","parkingSpace":null,"price":99000.0,"priceByArea":1650.0,"propertyCode":"83814796","propertyType":"studio","province":"Madrid","rooms":0,"showAddress":false,"size":60.0,"status":"good","suggestedTexts":{"subtitle":"Casco Hist\u00f3rico de Vallecas, Madrid","title":"Estudio en Calle Matillas"},"thumbnail":"https:\/\/img3.idealista.com\/blur\/WEB_LISTING\/0\/id.pro.es.image.master\/a0\/ab\/3b\/828940589.jpg","topNewDevelopment":false,"url":"https:\/\/www.idealista.com\/inmueble\/83814796\/"}
{"address":"Calle Lumbrales","bathrooms":1,"country":"es","detailedType":{"typology":"flat"},"district":"Villa de Vallecas","exterior":true,"externalReference":"TRV1615","floor":"1","has360":false,"has3DTour":false,"hasLift":false,"hasPlan":false,"hasStaging":false,"hasVideo":false,"latitude":40.36822,"longitude":-3.62593,"municipality":"Madrid","neighborhood":"Casco Hist\u00f3rico de Vallecas","newDevelopment":false,"numPhotos":23,"operation":"sale","parkingSpace":{"hasParkingSpace":true,"isParkingSpaceIncludedInPrice":true},"price":118000.0,"priceByArea":1457.0,"propertyCode":"85670778","propertyType":"flat","province":"Madrid","rooms":2,"showAddress":false,"size":81.0,"status":"good","suggestedTexts":{"subtitle":"Casco Hist\u00f3rico de Vallecas, Madrid","title":"Piso en Calle Lumbrales"},"thumbnail":"https:\/\/img3.idealista.com\/blur\/WEB_LISTING\/0\/id.pro.es.image.master\/cd\/dd\/b1\/813222378.jpg","topNewDevelopment":false,"url":"https:\/\/www.idealista.com\/inmueble\/85670778\/"}
{"address":"Virgen de los remedios","bathrooms":1,"country":"es","detailedType":{"typology":"flat"},"district":"Villa de Vallecas","exterior":true,"externalReference":"PABLO CARRERAS","floor":"en","has360":false,"has3DTour":false,"hasLift":true,"hasPlan":false,"hasStaging":false,"hasVideo":false,"latitude":40.3728816,"longitude":-3.623923,"municipality":"Madrid","neighborhood":"Casco Hist\u00f3rico de Vallecas","newDevelopment":false,"numPhotos":10,"operation":"sale","parkingSpace":null,"price":99900.0,"priceByArea":2039.0,"propertyCode":"91763293","propertyType":"flat","province":"Madrid","rooms":1,"showAddress":false,"size":49.0,"status":"good","suggestedTexts":{"subtitle":"Casco Hist\u00f3rico de Vallecas, Madrid","title":"Piso en Virgen de los remedios"},"thumbnail":"https:\/\/img3.idealista.com\/blur\/WEB_LISTING\/0\/id.pro.es.image.master\/2e\/36\/46\/822693949.jpg","topNewDevelopment":false,"url":"https:\/\/www.idealista.com\/inmueble\/91763293\/"}
{"address":"Calle Pena Oville","bathrooms":1,"country":"es","detailedType":{"typology":"flat"},"district":"Villa de Vallecas","exterior":true,"externalReference":"RP20202072757","floor":"2","has360":false,"has3DTour":false,"hasLift":false,"hasPlan":false,"hasStaging":false,"hasVideo":false,"latitude":40.3726227,"longitude":-3.621396,"municipality":"Madrid","neighborhood":"Casco Hist\u00f3rico de Vallecas","newDevelopment":false,"numPhotos":16,"operation":"sale","parkingSpace":null,"price":109000.0,"priceByArea":1453.0,"propertyCode":"90622134","propertyType":"flat","province":"Madrid","rooms":3,"showAddress":false,"size":75.0,"status":"renew","suggestedTexts":{"subtitle":"Casco Hist\u00f3rico de Vallecas, Madrid","title":"Piso en Calle Pena Oville"},"thumbnail":"https:\/\/img3.idealista.com\/blur\/WEB_LISTING\/0\/id.pro.es.image.master\/73\/a6\/06\/794623803.jpg","topNewDevelopment":false,"url":"https:\/\/www.idealista.com\/inmueble\/90622134\/"}
{"address":"Carretera Villaverde a Vallecas","bathrooms":1,"country":"es","detailedType":{"typology":"flat"},"district":"Villa de Vallecas","exterior":false,"externalReference":"7297822","floor":"1","has360":false,"has3DTour":false,"hasLift":false,"hasPlan":false,"hasStaging":false,"hasVideo":false,"latitude":40.37576,"longitude":-3.63562,"municipality":"Madrid","neighborhood":"Ensanche de Vallecas - La Gavia","newDevelopment":false,"numPhotos":4,"operation":"sale","parkingSpace":null,"price":111274.0,"priceByArea":1952.0,"propertyCode":"92003678","propertyType":"flat","province":"Madrid","rooms":1,"showAddress":false,"size":57.0,"status":"good","suggestedTexts":{"subtitle":"Ensanche de Vallecas - La Gavia, Madrid","title":"Piso en Carretera Villaverde a Vallecas"},"thumbnail":"https:\/\/img3.idealista.com\/blur\/WEB_LISTING\/0\/id.pro.es.image.master\/5c\/9d\/1e\/828415495.jpg","topNewDevelopment":false,"url":"https:\/\/www.idealista.com\/inmueble\/92003678\/"}
{"address":"Calle de la Gavia Seca","bathrooms":1,"country":"es","detailedType":{"typology":"flat"},"district":"Villa de Vallecas","exterior":false,"externalReference":null,"floor":"1","has360":false,"has3DTour":false,"hasLift":false,"hasPlan":false,"hasStaging":false,"hasVideo":false,"latitude":40.3774892,"longitude":-3.6195998,"municipality":"Madrid","neighborhood":"Casco Hist\u00f3rico de Vallecas","newDevelopment":false,"numPhotos":10,"operation":"sale","parkingSpace":null,"price":110000.0,"priceByArea":1642.0,"propertyCode":"91466135","propertyType":"flat","province":"Madrid","rooms":2,"showAddress":false,"size":67.0,"status":"good","suggestedTexts":{"subtitle":"Casco Hist\u00f3rico de Vallecas, Madrid","title":"Piso en Calle de la Gavia Seca"},"thumbnail":"https:\/\/img3.idealista.com\/blur\/WEB_LISTING\/0\/id.pro.es.image.master\/d7\/9c\/4c\/815832772.jpg","topNewDevelopment":false,"url":"https:\/\/www.idealista.com\/inmueble\/91466135\/"}
{"address":"barrio Casco Hist\u00f3rico de Vallecas","bathrooms":1,"country":"es","detailedType":{"typology":"flat"},"district":"Villa de Vallecas","exterior":false,"externalReference":"VI-000-030-686-877","floor":null,"has360":false,"has3DTour":false,"hasLift":null,"hasPlan":true,"hasStaging":false,"hasVideo":false,"latitude":40.3777713,"longitude":-3.6218949,"municipality":"Madrid","neighborhood":"Casco Hist\u00f3rico de Vallecas","newDevelopment":false,"numPhotos":23,"operation":"sale","parkingSpace":null,"price":99000.0,"priceByArea":1980.0,"propertyCode":"91157307","propertyType":"flat","province":"Madrid","rooms":2,"showAddress":false,"size":50.0,"status":"good","suggestedTexts":{"subtitle":"Casco Hist\u00f3rico de Vallecas, Madrid","title":"Piso"},"thumbnail":"https:\/\/img3.idealista.com\/blur\/WEB_LISTING\/0\/id.pro.es.image.master\/ea\/1a\/08\/812030695.jpg","topNewDevelopment":false,"url":"https:\/\/www.idealista.com\/inmueble\/91157307\/"}
{"address":"Camino de la Suerte","bathrooms":1,"country":"es","detailedType":{"typology":"flat"},"district":"Villa de Vallecas","exterior":true,"externalReference":"4342","floor":"2","has360":false,"has3DTour":false,"hasLift":false,"hasPlan":false,"hasStaging":false,"hasVideo":false,"latitude":40.3764241,"longitude":-3.6177992,"municipality":"Madrid","neighborhood":"Casco Hist\u00f3rico de Vallecas","newDevelopment":false,"numPhotos":13,"operation":"sale","parkingSpace":null,"price":85000.0,"priceByArea":1545.0,"propertyCode":"92202826","propertyType":"flat","province":"Madrid","rooms":2,"showAddress":false,"size":55.0,"status":"good","suggestedTexts":{"subtitle":"Casco Hist\u00f3rico de Vallecas, Madrid","title":"Piso en Camino de la Suerte"},"thumbnail":"https:\/\/img3.idealista.com\/blur\/WEB_LISTING\/0\/id.pro.es.image.master\/a3\/de\/eb\/833494319.jpg","topNewDevelopment":false,"url":"https:\/\/www.idealista.com\/inmueble\/92202826\/"}
{"address":"Calle de la Gavia Seca","bathrooms":1,"country":"es","detailedType":{"typology":"flat"},"district":"Villa de Vallecas","exterior":false,"externalReference":"GS118","floor":"1","has360":false,"has3DTour":false,"hasLift":false,"hasPlan":false,"hasStaging":false,"hasVideo":false,"latitude":40.3766936,"longitude":-3.6174725,"municipality":"Madrid","neighborhood":"Casco Hist\u00f3rico de Vallecas","newDevelopment":false,"numPhotos":10,"operation":"sale","parkingSpace":null,"price":110000.0,"priceByArea":1692.0,"propertyCode":"91540986","propertyType":"flat","province":"Madrid","rooms":2,"showAddress":false,"size":65.0,"status":"good","suggestedTexts":{"subtitle":"Casco Hist\u00f3rico de Vallecas, Madrid","title":"Piso en Calle de la Gavia Seca"},"thumbnail":"https:\/\/img3.idealista.com\/blur\/WEB_LISTING\/0\/id.pro.es.image.master\/7f\/49\/47\/817007204.jpg","topNewDevelopment":false,"url":"https:\/\/www.idealista.com\/inmueble\/91540986\/"}
{"address":"barrio Ensanche de Vallecas - La Gavia","bathrooms":1,"country":"es","detailedType":{"typology":"flat"},"district":"Villa de Vallecas","exterior":true,"externalReference":"VT-001","floor":"1","has360":false,"has3DTour":false,"hasLift":true,"hasPlan":false,"hasStaging":false,"hasVideo":false,"latitude":40.3777064,"longitude":-3.6304288,"municipality":"Madrid","neighborhood":"Ensanche de Vallecas - La Gavia","newDevelopment":false,"numPhotos":16,"operation":"sale","parkingSpace":{"hasParkingSpace":true,"isParkingSpaceIncludedInPrice":true},"price":101000.0,"priceByArea":2525.0,"propertyCode":"90624652","propertyType":"flat","province":"Madrid","rooms":1,"showAddress":false,"size":40.0,"status":"good","suggestedTexts":{"subtitle":"Ensanche de Vallecas - La Gavia, Madrid","title":"Piso"},"thumbnail":"https:\/\/img3.idealista.com\/blur\/WEB_LISTING\/0\/id.pro.es.image.master\/e5\/07\/b6\/832285660.jpg","topNewDevelopment":false,"url":"https:\/\/www.idealista.com\/inmueble\/90624652\/"}
{"address":"Calle Eulogio Pedrero","bathrooms":1,"country":"es","detailedType":{"typology":"flat"},"district":"Villa de Vallecas","exterior":true,"externalReference":null,"floor":"bj","has360":false,"has3DTour":false,"hasLift":true,"hasPlan":true,"hasStaging":false,"hasVideo":false,"latitude":40.3733239,"longitude":-3.6219203,"municipality":"Madrid","neighborhood":"Casco Hist\u00f3rico de Vallecas","newDevelopment":false,"numPhotos":12,"operation":"sale","parkingSpace":null,"price":115000.0,"priceByArea":2614.0,"propertyCode":"92010534","propertyType":"flat","province":"Madrid","rooms":1,"showAddress":false,"size":44.0,"status":"good","suggestedTexts":{"subtitle":"Casco Hist\u00f3rico de Vallecas, Madrid","title":"Piso en Calle Eulogio Pedrero"},"thumbnail":"https:\/\/img3.idealista.com\/blur\/WEB_LISTING\/0\/id.pro.es.image.master\/66\/26\/8c\/828575023.jpg","topNewDevelopment":false,"url":"https:\/\/www.idealista.com\/inmueble\/92010534\/"}
{"address":"VILLAVERDE A VALLECAS","bathrooms":1,"country":"es","detailedType":{"typology":"flat"},"district":"Villa de Vallecas","exterior":true,"externalReference":null,"floor":"4","has360":false,"has3DTour":false,"hasLift":true,"hasPlan":false,"hasStaging":false,"hasVideo":false,"latitude":40.3769662,"longitude":-3.6306975,"municipality":"Madrid","neighborhood":"Ensanche de Vallecas - La Gavia","newDevelopment":false,"numPhotos":14,"operation":"sale","parkingSpace":{"hasParkingSpace":true,"isParkingSpaceIncludedInPrice":true},"price":95900.0,"priceByArea":1370.0,"propertyCode":"92043844","propertyType":"flat","province":"Madrid","rooms":1,"showAddress":false,"size":70.0,"status":"good","suggestedTexts":{"subtitle":"Ensanche de Vallecas - La Gavia, Madrid","title":"Piso en VILLAVERDE A VALLECAS"},"thumbnail":"https:\/\/img3.idealista.com\/blur\/WEB_LISTING\/0\/id.pro.es.image.master\/86\/79\/fc\/829421569.jpg","topNewDevelopment":false,"url":"https:\/\/www.idealista.com\/inmueble\/92043844\/"}
{"address":"Calle Muela de San Juan","bathrooms":1,"country":"es","detailedType":{"typology":"flat"},"district":"Villa de Vallecas","exterior":true,"externalReference":"CNI772","floor":"3","has360":false,"has3DTour":false,"hasLift":false,"hasPlan":false,"hasStaging":false,"hasVideo":false,"latitude":40.3763141,"longitude":-3.6202024,"municipality":"Madrid","neighborhood":"Casco Hist\u00f3rico de Vallecas","newDevelopment":false,"numPhotos":11,"operation":"sale","parkingSpace":null,"price":81500.0,"priceByArea":1630.0,"propertyCode":"90650771","propertyType":"flat","province":"Madrid","rooms":2,"showAddress":false,"size":50.0,"status":"good","suggestedTexts":{"subtitle":"Casco Hist\u00f3rico de Vallecas, Madrid","title":"Piso en Calle Muela de San Juan"},"thumbnail":"https:\/\/img3.idealista.com\/blur\/WEB_LISTING\/0\/id.pro.es.image.master\/0f\/6e\/21\/795274176.jpg","topNewDevelopment":false,"url":"https:\/\/www.idealista.com\/inmueble\/90650771\/"}
{"address":"Calle Puerto de Lumbreras","bathrooms":1,"country":"es","detailedType":{"typology":"flat"},"district":"Villa de Vallecas","exterior":true,"externalReference":"CNI805","floor":"1","has360":false,"has3DTour":false,"hasLift":false,"hasPlan":false,"hasStaging":false,"hasVideo":false,"latitude":40.38259,"longitude":-3.6187,"municipality":"Madrid","neighborhood":"Casco Hist\u00f3rico de Vallecas","newDevelopment":false,"numPhotos":9,"operation":"sale","parkingSpace":null,"price":89900.0,"priceByArea":1284.0,"propertyCode":"92224795","propertyType":"flat","province":"Madrid","rooms":2,"showAddress":false,"size":70.0,"status":"good","suggestedTexts":{"subtitle":"Casco Hist\u00f3rico de Vallecas, Madrid","title":"Piso en Calle Puerto de Lumbreras"},"thumbnail":"https:\/\/img3.idealista.com\/blur\/WEB_LISTING\/0\/id.pro.es.image.master\/23\/e6\/56\/834127536.jpg","topNewDevelopment":false,"url":"https:\/\/www.idealista.com\/inmueble\/92224795\/"}
{"address":"Calle Pico de la Br\u00fajula","bathrooms":1,"country":"es","detailedType":{"typology":"flat"},"district":"Villa de Vallecas","exterior":true,"externalReference":"RP20202078289","floor":null,"has360":false,"has3DTour":false,"hasLift":false,"hasPlan":false,"hasStaging":false,"hasVideo":false,"latitude":40.3775508,"longitude":-3.6218271,"municipality":"Madrid","neighborhood":"Casco Hist\u00f3rico de Vallecas","newDevelopment":false,"numPhotos":16,"operation":"sale","parkingSpace":null,"price":92000.0,"priceByArea":1878.0,"propertyCode":"92197347","propertyType":"flat","province":"Madrid","rooms":2,"showAddress":false,"size":49.0,"status":"good","suggestedTexts":{"subtitle":"Casco Hist\u00f3rico de Vallecas, Madrid","title":"Piso en Calle Pico de la Br\u00fajula"},"thumbnail":"https:\/\/img3.idealista.com\/blur\/WEB_LISTING\/0\/id.pro.es.image.master\/bc\/3e\/6f\/833333048.jpg","topNewDevelopment":false,"url":"https:\/\/www.idealista.com\/inmueble\/92197347\/"}
{"address":"Calle Cerro del Murmullo, 13","bathrooms":1,"country":"es","detailedType":{"typology":"flat"},"district":"Villa de Vallecas","exterior":true,"externalReference":"306041","floor":null,"has360":false,"has3DTour":false,"hasLift":false,"hasPlan":true,"hasStaging":false,"hasVideo":true,"latitude":40.3645751,"longitude":-3.5833714,"municipality":"Madrid","neighborhood":"Ensanche de Vallecas - La Gavia","newDevelopment":false,"numPhotos":22,"operation":"sale","parkingSpace":null,"price":110000.0,"priceByArea":2157.0,"propertyCode":"91552745","propertyType":"flat","province":"Madrid","rooms":1,"showAddress":true,"size":51.0,"status":"good","suggestedTexts":{"subtitle":"Ensanche de Vallecas - La Gavia, Madrid","title":"Piso en Calle Cerro del Murmullo, 13"},"thumbnail":"https:\/\/img3.idealista.com\/blur\/WEB_LISTING\/0\/id.pro.es.image.master\/88\/fc\/28\/817313622.jpg","topNewDevelopment":false,"url":"https:\/\/www.idealista.com\/inmueble\/91552745\/"}
{"address":"Carretera Villaverde a Vallecas","bathrooms":1,"country":"es","detailedType":{"typology":"flat"},"district":"Villa de Vallecas","exterior":true,"externalReference":"11952","floor":"1","has360":false,"has3DTour":false,"hasLift":true,"hasPlan":true,"hasStaging":false,"hasVideo":false,"latitude":40.3751667,"longitude":-3.6335979,"municipality":"Madrid","neighborhood":"Ensanche de Vallecas - La Gavia","newDevelopment":false,"numPhotos":12,"operation":"sale","parkingSpace":{"hasParkingSpace":true,"isParkingSpaceIncludedInPrice":true},"price":95000.0,"priceByArea":1939.0,"propertyCode":"90780492","propertyType":"flat","province":"Madrid","rooms":1,"showAddress":false,"size":49.0,"status":"good","suggestedTexts":{"subtitle":"Ensanche de Vallecas - La Gavia, Madrid","title":"Piso en Carretera Villaverde a Vallecas"},"thumbnail":"https:\/\/img3.idealista.com\/blur\/WEB_LISTING\/0\/id.pro.es.image.master\/bd\/87\/e8\/798533280.jpg","topNewDevelopment":false,"url":"https:\/\/www.idealista.com\/inmueble\/90780492\/"}
{"address":"Calle de la Gavia Seca","bathrooms":1,"country":"es","detailedType":{"typology":"flat"},"district":"Villa de Vallecas","exterior":true,"externalReference":"13792","floor":"bj","has360":false,"has3DTour":false,"hasLift":false,"hasPlan":true,"hasStaging":false,"hasVideo":false,"latitude":40.3801839,"longitude":-3.621549,"municipality":"Madrid","neighborhood":"Casco Hist\u00f3rico de Vallecas","newDevelopment":false,"numPhotos":9,"operation":"sale","parkingSpace":null,"price":108000.0,"priceByArea":2077.0,"propertyCode":"91554832","propertyType":"flat","province":"Madrid","rooms":2,"showAddress":false,"size":52.0,"status":"good","suggestedTexts":{"subtitle":"Casco Hist\u00f3rico de Vallecas, Madrid","title":"Piso en Calle de la Gavia Seca"},"thumbnail":"https:\/\/img3.idealista.com\/blur\/WEB_LISTING\/0\/id.pro.es.image.master\/4c\/29\/ba\/817358842.jpg","topNewDevelopment":false,"url":"https:\/\/www.idealista.com\/inmueble\/91554832\/"}
{"address":"Calle de la Sierra de Palomeras","bathrooms":1,"country":"es","detailedType":{"typology":"flat"},"district":"Villa de Vallecas","exterior":true,"externalReference":"CNI794","floor":"bj","has360":false,"has3DTour":false,"hasLift":false,"hasPlan":false,"hasStaging":false,"hasVideo":false,"latitude":40.3783445,"longitude":-3.6230045,"municipality":"Madrid","neighborhood":"Casco Hist\u00f3rico de Vallecas","newDevelopment":false,"numPhotos":24,"operation":"sale","parkingSpace":null,"price":119900.0,"priceByArea":2398.0,"propertyCode":"91569504","propertyType":"flat","province":"Madrid","rooms":2,"showAddress":false,"size":50.0,"status":"good","suggestedTexts":{"subtitle":"Casco Hist\u00f3rico de Vallecas, Madrid","title":"Piso en Calle de la Sierra de Palomeras"},"thumbnail":"https:\/\/img3.idealista.com\/blur\/WEB_LISTING\/0\/id.pro.es.image.master\/8f\/54\/12\/817765936.jpg","topNewDevelopment":false,"url":"https:\/\/www.idealista.com\/inmueble\/91569504\/"}
{"address":"Carretera de Villaverde a Vallecas, 293","bathrooms":1,"country":"es","detailedType":{"typology":"flat","subTypology":"studio"},"district":"Villa de Vallecas","exterior":true,"externalReference":"3373-04799","floor":"4","has360":false,"has3DTour":false,"hasLift":true,"hasPlan":false,"hasStaging":false,"hasVideo":false,"latitude":40.37506,"longitude":-3.63372,"municipality":"Madrid","neighborhood":"Ensanche de Vallecas - La Gavia","newDevelopment":false,"numPhotos":15,"operation":"sale","parkingSpace":{"hasParkingSpace":true,"isParkingSpaceIncludedInPrice":true},"price":91000.0,"priceByArea":1896.0,"propertyCode":"88535851","propertyType":"studio","province":"Madrid","rooms":0,"showAddress":true,"size":48.0,"status":"good","suggestedTexts":{"subtitle":"Ensanche de Vallecas - La Gavia, Madrid","title":"Estudio en Carretera de Villaverde a Vallecas, 293"},"thumbnail":"https:\/\/img3.idealista.com\/blur\/WEB_LISTING\/0\/id.pro.es.image.master\/29\/f9\/8f\/824326317.jpg","topNewDevelopment":false,"url":"https:\/\/www.idealista.com\/inmueble\/88535851\/"}
{"address":"barrio Casco Hist\u00f3rico de Vallecas","bathrooms":1,"country":"es","detailedType":{"typology":"flat"},"district":"Villa de Vallecas","exterior":true,"externalReference":"RP53201964972","floor":null,"has360":false,"has3DTour":false,"hasLift":false,"hasPlan":true,"hasStaging":false,"hasVideo":true,"latitude":40.37971,"longitude":-3.62238,"municipality":"Madrid","neighborhood":"Casco Hist\u00f3rico de Vallecas","newDevelopment":false,"numPhotos":8,"operation":"sale","parkingSpace":null,"price":113500.0,"priceByArea":1991.0,"propertyCode":"87924918","propertyType":"flat","province":"Madrid","rooms":2,"showAddress":false,"size":57.0,"status":"renew","suggestedTexts":{"subtitle":"Casco Hist\u00f3rico de Vallecas, Madrid","title":"Piso"},"thumbnail":"https:\/\/img3.idealista.com\/blur\/WEB_LISTING\/0\/id.pro.es.image.master\/50\/5f\/89\/736170217.jpg","topNewDevelopment":false,"url":"https:\/\/www.idealista.com\/inmueble\/87924918\/"}
{"address":"Calle del Puerto de Porzuna","bathrooms":1,"country":"es","detailedType":{"typology":"flat"},"district":"Villa de Vallecas","exterior":true,"externalReference":"CNI800","floor":"2","has360":false,"has3DTour":false,"hasLift":false,"hasPlan":false,"hasStaging":false,"hasVideo":false,"latitude":40.3743362,"longitude":-3.621352,"municipality":"Madrid","neighborhood":"Casco Hist\u00f3rico de Vallecas","newDevelopment":false,"numPhotos":11,"operation":"sale","parkingSpace":null,"price":109900.0,"priceByArea":1691.0,"propertyCode":"91944906","propertyType":"flat","province":"Madrid","rooms":2,"showAddress":false,"size":65.0,"status":"good","suggestedTexts":{"subtitle":"Casco Hist\u00f3rico de Vallecas, Madrid","title":"Piso en Calle del Puerto de Porzuna"},"thumbnail":"https:\/\/img3.idealista.com\/blur\/WEB_LISTING\/0\/id.pro.es.image.master\/46\/3c\/76\/827011425.jpg","topNewDevelopment":false,"url":"https:\/\/www.idealista.com\/inmueble\/91944906\/"}
{"address":"Calle Sierra Morena","bathrooms":1,"country":"es","detailedType":{"typology":"flat"},"district":"Villa de Vallecas","exterior":true,"externalReference":"1416\/382","floor":"bj","has360":false,"has3DTour":false,"hasLift":false,"hasPlan":false,"hasStaging":false,"hasVideo":false,"latitude":40.3777415,"longitude":-3.6229289,"municipality":"Madrid","neighborhood":"Casco Hist\u00f3rico de Vallecas","newDevelopment":false,"numPhotos":18,"operation":"sale","parkingSpace":null,"price":88000.0,"priceByArea":1467.0,"propertyCode":"90911419","propertyType":"flat","province":"Madrid","rooms":2,"showAddress":false,"size":60.0,"status":"good","suggestedTexts":{"subtitle":"Casco Hist\u00f3rico de Vallecas, Madrid","title":"Piso en Calle Sierra Morena"},"thumbnail":"https:\/\/img3.idealista.com\/blur\/WEB_LISTING\/0\/id.pro.es.image.master\/8b\/4a\/53\/801951039.jpg","topNewDevelopment":false,"url":"https:\/\/www.idealista.com\/inmueble\/90911419\/"}
{"address":"PUERTO DE LUMBRERAS","bathrooms":1,"country":"es","detailedType":{"typology":"flat"},"district":"Villa de Vallecas","exterior":true,"externalReference":"PUERTO LUMBRERAS","floor":"1","has360":false,"has3DTour":false,"hasLift":false,"hasPlan":false,"hasStaging":false,"hasVideo":false,"latitude":40.38281,"longitude":-3.61948,"municipality":"Madrid","neighborhood":"Casco Hist\u00f3rico de Vallecas","newDevelopment":false,"numPhotos":11,"operation":"sale","parkingSpace":null,"price":103900.0,"priceByArea":1367.0,"propertyCode":"91252663","propertyType":"flat","province":"Madrid","rooms":3,"showAddress":false,"size":76.0,"status":"good","suggestedTexts":{"subtitle":"Casco Hist\u00f3rico de Vallecas, Madrid","title":"Piso en PUERTO DE LUMBRERAS"},"thumbnail":"https:\/\/img3.idealista.com\/blur\/WEB_LISTING\/0\/id.pro.es.image.master\/ef\/2f\/84\/810276106.jpg","topNewDevelopment":false,"url":"https:\/\/www.idealista.com\/inmueble\/91252663\/"}
{"address":"barrio Casco Hist\u00f3rico de Vallecas","bathrooms":1,"country":"es","detailedType":{"typology":"flat"},"district":"Villa de Vallecas","exterior":true,"externalReference":"CNI-ARG498","floor":null,"has360":false,"has3DTour":false,"hasLift":false,"hasPlan":false,"hasStaging":false,"hasVideo":false,"latitude":40.3839204,"longitude":-3.6185274,"municipality":"Madrid","neighborhood":"Casco Hist\u00f3rico de Vallecas","newDevelopment":false,"numPhotos":15,"operation":"sale","parkingSpace":null,"price":99900.0,"priceByArea":1611.0,"propertyCode":"91977281","propertyType":"flat","province":"Madrid","rooms":3,"showAddress":false,"size":62.0,"status":"good","suggestedTexts":{"subtitle":"Casco Hist\u00f3rico de Vallecas, Madrid","title":"Piso"},"thumbnail":"https:\/\/img3.idealista.com\/blur\/WEB_LISTING\/0\/id.pro.es.image.master\/a7\/01\/41\/827782678.jpg","topNewDevelopment":false,"url":"https:\/\/www.idealista.com\/inmueble\/91977281\/"}
{"address":"barrio Casco Hist\u00f3rico de Vallecas","bathrooms":1,"country":"es","detailedType":{"typology":"flat"},"district":"Villa de Vallecas","exterior":true,"externalReference":"3929","floor":"2","has360":false,"has3DTour":false,"hasLift":true,"hasPlan":false,"hasStaging":false,"hasVideo":false,"latitude":40.3799919,"longitude":-3.6195132,"municipality":"Madrid","neighborhood":"Casco Hist\u00f3rico de Vallecas","newDevelopment":false,"numPhotos":6,"operation":"sale","parkingSpace":null,"price":107500.0,"priceByArea":3468.0,"propertyCode":"92153475","propertyType":"flat","province":"Madrid","rooms":1,"showAddress":false,"size":31.0,"status":"good","suggestedTexts":{"subtitle":"Casco Hist\u00f3rico de Vallecas, Madrid","title":"Piso"},"thumbnail":"https:\/\/img3.idealista.com\/blur\/WEB_LISTING\/0\/id.pro.es.image.master\/11\/50\/d2\/832235314.jpg","topNewDevelopment":false,"url":"https:\/\/www.idealista.com\/inmueble\/92153475\/"}
{"address":"barrio Casco Hist\u00f3rico de Vallecas","bathrooms":1,"country":"es","detailedType":{"typology":"flat"},"district":"Villa de Vallecas","exterior":true,"externalReference":"1741\/1860","floor":"bj","has360":false,"has3DTour":false,"hasLift":false,"hasPlan":false,"hasStaging":false,"hasVideo":false,"latitude":40.3717215,"longitude":-3.6189523,"municipality":"Madrid","neighborhood":"Casco Hist\u00f3rico de Vallecas","newDevelopment":false,"numPhotos":13,"operation":"sale","parkingSpace":null,"price":95000.0,"priceByArea":1979.0,"propertyCode":"91808755","propertyType":"flat","province":"Madrid","rooms":2,"showAddress":false,"size":48.0,"status":"good","suggestedTexts":{"subtitle":"Casco Hist\u00f3rico de Vallecas, Madrid","title":"Piso"},"thumbnail":"https:\/\/img3.idealista.com\/blur\/WEB_LISTING\/0\/id.pro.es.image.master\/ce\/5c\/b2\/823827087.jpg","topNewDevelopment":false,"url":"https:\/\/www.idealista.com\/inmueble\/91808755\/"}
{"address":"cerro del murmullo, 13","bathrooms":1,"country":"es","detailedType":{"typology":"flat","subTypology":"duplex"},"district":"Villa de Vallecas","exterior":true,"externalReference":"CERRO231","floor":"2","has360":false,"has3DTour":false,"hasLift":true,"hasPlan":false,"hasStaging":false,"hasVideo":false,"latitude":40.3645751,"longitude":-3.5833714,"municipality":"Madrid","neighborhood":"Ensanche de Vallecas - La Gavia","newDevelopment":false,"numPhotos":16,"operation":"sale","parkingSpace":null,"price":90000.0,"priceByArea":1552.0,"propertyCode":"91818582","propertyType":"duplex","province":"Madrid","rooms":0,"showAddress":true,"size":58.0,"status":"renew","suggestedTexts":{"subtitle":"Ensanche de Vallecas - La Gavia, Madrid","title":"D\u00faplex en cerro del murmullo, 13"},"thumbnail":"https:\/\/img3.idealista.com\/blur\/WEB_LISTING\/0\/id.pro.es.image.master\/ac\/07\/a8\/824036994.jpg","topNewDevelopment":false,"url":"https:\/\/www.idealista.com\/inmueble\/91818582\/"}
{"address":"CERRO DEL MURMULLO, 13","bathrooms":1,"country":"es","detailedType":{"typology":"flat","subTypology":"studio"},"district":"Villa de Vallecas","exterior":true,"externalReference":"estudio79","floor":"1","has360":false,"has3DTour":false,"hasLift":true,"hasPlan":false,"hasStaging":false,"hasVideo":false,"latitude":40.3645751,"longitude":-3.5833714,"municipality":"Madrid","neighborhood":"Ensanche de Vallecas - La Gavia","newDevelopment":false,"numPhotos":9,"operation":"sale","parkingSpace":{"hasParkingSpace":true,"isParkingSpaceIncludedInPrice":true},"price":90000.0,"priceByArea":1765.0,"propertyCode":"91060417","propertyType":"studio","province":"Madrid","rooms":0,"showAddress":true,"size":51.0,"status":"good","suggestedTexts":{"subtitle":"Ensanche de Vallecas - La Gavia, Madrid","title":"Estudio en CERRO DEL MURMULLO, 13"},"thumbnail":"https:\/\/img3.idealista.com\/blur\/WEB_LISTING\/0\/id.pro.es.image.master\/c8\/53\/37\/805945517.jpg","topNewDevelopment":false,"url":"https:\/\/www.idealista.com\/inmueble\/91060417\/"}
{"address":"Calle Milmarcos, 9","bathrooms":1,"country":"es","detailedType":{"typology":"flat"},"district":"Villa de Vallecas","exterior":true,"externalReference":"AR2001","floor":"bj","has360":false,"has3DTour":false,"hasLift":false,"hasPlan":false,"hasStaging":false,"hasVideo":false,"latitude":40.3752976,"longitude":-3.6195806,"municipality":"Madrid","neighborhood":"Casco Hist\u00f3rico de Vallecas","newDevelopment":false,"numPhotos":35,"operation":"sale","parkingSpace":null,"price":100000.0,"priceByArea":1961.0,"propertyCode":"92230991","propertyType":"flat","province":"Madrid","rooms":3,"showAddress":true,"size":51.0,"status":"good","suggestedTexts":{"subtitle":"Casco Hist\u00f3rico de Vallecas, Madrid","title":"Piso en Calle Milmarcos, 9"},"thumbnail":"https:\/\/img3.idealista.com\/blur\/WEB_LISTING\/0\/id.pro.es.image.master\/ae\/6b\/d7\/698015216.jpg","topNewDevelopment":false,"url":"https:\/\/www.idealista.com\/inmueble\/92230991\/"}
{"address":"Calle del Puerto de Pozazal, 37","bathrooms":1,"country":"es","detailedType":{"typology":"flat"},"district":"Villa de Vallecas","exterior":true,"externalReference":"Fede\/Pozazal1H","floor":"4","has360":false,"has3DTour":false,"hasLift":true,"hasPlan":false,"hasStaging":false,"hasVideo":false,"latitude":40.3796414,"longitude":-3.6333071,"municipality":"Madrid","neighborhood":"Ensanche de Vallecas - La Gavia","newDevelopment":false,"numPhotos":16,"operation":"sale","parkingSpace":{"hasParkingSpace":true,"isParkingSpaceIncludedInPrice":true},"price":119900.0,"priceByArea":2351.0,"propertyCode":"92239398","propertyType":"flat","province":"Madrid","rooms":1,"showAddress":true,"size":51.0,"status":"good","suggestedTexts":{"subtitle":"Ensanche de Vallecas - La Gavia, Madrid","title":"Piso en Calle del Puerto de Pozazal, 37"},"thumbnail":"https:\/\/img3.idealista.com\/blur\/WEB_LISTING\/0\/id.pro.es.image.master\/a0\/8a\/9c\/750977003.jpg","topNewDevelopment":false,"url":"https:\/\/www.idealista.com\/inmueble\/92239398\/"}
{"address":"PUERTO DE LUMBRERAS, 26","bathrooms":1,"country":"es","detailedType":{"typology":"flat"},"district":"Villa de Vallecas","exterior":true,"externalReference":null,"floor":"1","has360":false,"has3DTour":false,"hasLift":false,"hasPlan":false,"hasStaging":false,"hasVideo":false,"latitude":40.3814017,"longitude":-3.6191376,"municipality":"Madrid","neighborhood":"Casco Hist\u00f3rico de Vallecas","newDevelopment":false,"numPhotos":3,"operation":"sale","parkingSpace":null,"price":98000.0,"priceByArea":1556.0,"propertyCode":"92239560","propertyType":"flat","province":"Madrid","rooms":3,"showAddress":true,"size":63.0,"status":"renew","suggestedTexts":{"subtitle":"Casco Hist\u00f3rico de Vallecas, Madrid","title":"Piso en PUERTO DE LUMBRERAS, 26"},"thumbnail":"https:\/\/img3.idealista.com\/blur\/WEB_LISTING\/0\/id.pro.es.image.master\/b6\/8a\/36\/834481141.jpg","topNewDevelopment":false,"url":"https:\/\/www.idealista.com\/inmueble\/92239560\/"}
{"address":"barrio Casco Hist\u00f3rico de Vallecas","bathrooms":1,"country":"es","detailedType":{"typology":"flat"},"district":"Villa de Vallecas","exterior":false,"externalReference":"PABLO","floor":"bj","has360":false,"has3DTour":false,"hasLift":false,"hasPlan":false,"hasStaging":false,"hasVideo":true,"latitude":40.373454,"longitude":-3.6218283,"municipality":"Madrid","neighborhood":"Casco Hist\u00f3rico de Vallecas","newDevelopment":false,"numPhotos":16,"operation":"sale","parkingSpace":null,"price":99900.0,"priceByArea":1491.0,"propertyCode":"92187919","propertyType":"flat","province":"Madrid","rooms":2,"showAddress":false,"size":67.0,"status":"good","suggestedTexts":{"subtitle":"Casco Hist\u00f3rico de Vallecas, Madrid","title":"Piso"},"thumbnail":"https:\/\/img3.idealista.com\/blur\/WEB_LISTING\/0\/id.pro.es.image.master\/66\/89\/5b\/833096650.jpg","topNewDevelopment":false,"url":"https:\/\/www.idealista.com\/inmueble\/92187919\/"}
{"address":"Carretera Villaverde a Vallecas, 293 B","bathrooms":2,"country":"es","detailedType":{"typology":"flat"},"district":"Villa de Vallecas","exterior":true,"externalReference":"DW-000-999","floor":"3","has360":false,"has3DTour":false,"hasLift":true,"hasPlan":true,"hasStaging":false,"hasVideo":false,"latitude":40.3761498,"longitude":-3.6323477,"municipality":"Madrid","neighborhood":"Ensanche de Vallecas - La Gavia","newDevelopment":false,"numPhotos":24,"operation":"sale","parkingSpace":null,"price":99000.0,"priceByArea":1707.0,"propertyCode":"91929335","propertyType":"flat","province":"Madrid","rooms":1,"showAddress":true,"size":58.0,"status":"good","suggestedTexts":{"subtitle":"Ensanche de Vallecas - La Gavia, Madrid","title":"Piso en Carretera Villaverde a Vallecas, 293 B"},"thumbnail":"https:\/\/img3.idealista.com\/blur\/WEB_LISTING\/0\/id.pro.es.image.master\/eb\/0b\/f6\/826685967.jpg","topNewDevelopment":false,"url":"https:\/\/www.idealista.com\/inmueble\/91929335\/"}
{"address":"Calle de Tiedra","bathrooms":1,"country":"es","detailedType":{"typology":"flat"},"district":"Villa de Vallecas","exterior":true,"externalReference":"TIEDRA (686-877)","floor":"3","has360":false,"has3DTour":false,"hasLift":false,"hasPlan":true,"hasStaging":false,"hasVideo":false,"latitude":40.3746713,"longitude":-3.6243949,"municipality":"Madrid","neighborhood":"Casco Hist\u00f3rico de Vallecas","newDevelopment":false,"numPhotos":16,"operation":"sale","parkingSpace":null,"price":103500.0,"priceByArea":2070.0,"propertyCode":"91921003","propertyType":"flat","province":"Madrid","rooms":2,"showAddress":false,"size":50.0,"status":"good","suggestedTexts":{"subtitle":"Casco Hist\u00f3rico de Vallecas, Madrid","title":"Piso en Calle de Tiedra"},"thumbnail":"https:\/\/img3.idealista.com\/blur\/WEB_LISTING\/0\/id.pro.es.image.master\/b4\/3e\/5c\/826505080.jpg","topNewDevelopment":false,"url":"https:\/\/www.idealista.com\/inmueble\/91921003\/"}
{"address":"Calle Puerto de Lumbreras","bathrooms":1,"country":"es","detailedType":{"typology":"flat"},"district":"Villa de Vallecas","exterior":true,"externalReference":"057-20","floor":"2","has360":false,"has3DTour":false,"hasLift":false,"hasPlan":true,"hasStaging":false,"hasVideo":false,"latitude":40.3820403,"longitude":-3.6200855,"municipality":"Madrid","neighborhood":"Casco Hist\u00f3rico de Vallecas","newDevelopment":false,"numPhotos":42,"operation":"sale","parkingSpace":null,"price":115000.0,"priceByArea":1825.0,"propertyCode":"92088670","propertyType":"flat","province":"Madrid","rooms":3,"showAddress":false,"size":63.0,"status":"good","suggestedTexts":{"subtitle":"Casco Hist\u00f3rico de Vallecas, Madrid","title":"Piso en Calle Puerto de Lumbreras"},"thumbnail":"https:\/\/img3.idealista.com\/blur\/WEB_LISTING\/0\/id.pro.es.image.master\/15\/74\/d4\/834273502.jpg","topNewDevelopment":false,"url":"https:\/\/www.idealista.com\/inmueble\/92088670\/"}
{"address":"Calle Sierra de Gor","bathrooms":1,"country":"es","detailedType":{"typology":"flat"},"district":"Villa de Vallecas","exterior":false,"externalReference":"6812092","floor":"3","has360":false,"has3DTour":false,"hasLift":false,"hasPlan":false,"hasStaging":false,"hasVideo":false,"latitude":40.3810738,"longitude":-3.6158882,"municipality":"Madrid","neighborhood":"Casco Hist\u00f3rico de Vallecas","newDevelopment":false,"numPhotos":7,"operation":"sale","parkingSpace":null,"price":114760.0,"priceByArea":1510.0,"propertyCode":"92222825","propertyType":"flat","province":"Madrid","rooms":3,"showAddress":false,"size":76.0,"status":"good","suggestedTexts":{"subtitle":"Casco Hist\u00f3rico de Vallecas, Madrid","title":"Piso en Calle Sierra de Gor"},"thumbnail":"https:\/\/img3.idealista.com\/blur\/WEB_LISTING\/0\/id.pro.es.image.master\/4d\/4f\/75\/834055793.jpg","topNewDevelopment":false,"url":"https:\/\/www.idealista.com\/inmueble\/92222825\/"}
{"address":"vallecas, 295","bathrooms":1,"country":"es","detailedType":{"typology":"flat","subTypology":"duplex"},"district":"Villa de Vallecas","exterior":true,"externalReference":"DW-000-998","floor":"5","has360":false,"has3DTour":false,"hasLift":true,"hasPlan":false,"hasStaging":false,"hasVideo":false,"latitude":40.3762047,"longitude":-3.6318837,"municipality":"Madrid","neighborhood":"Ensanche de Vallecas - La Gavia","newDevelopment":false,"numPhotos":21,"operation":"sale","parkingSpace":null,"price":99000.0,"priceByArea":2063.0,"propertyCode":"91929694","propertyType":"duplex","province":"Madrid","rooms":1,"showAddress":true,"size":48.0,"status":"good","suggestedTexts":{"subtitle":"Ensanche de Vallecas - La Gavia, Madrid","title":"D\u00faplex en vallecas, 295"},"thumbnail":"https:\/\/img3.idealista.com\/blur\/WEB_LISTING\/0\/id.pro.es.image.master\/77\/6c\/0f\/826691027.jpg","topNewDevelopment":false,"url":"https:\/\/www.idealista.com\/inmueble\/91929694\/"}
{"address":"Calle de Tiedra","bathrooms":1,"country":"es","detailedType":{"typology":"flat"},"district":"Villa de Vallecas","exterior":true,"externalReference":null,"floor":"bj","has360":false,"has3DTour":false,"hasLift":false,"hasPlan":false,"hasStaging":false,"hasVideo":false,"latitude":40.3775368,"longitude":-3.6246711,"municipality":"Madrid","neighborhood":"Casco Hist\u00f3rico de Vallecas","newDevelopment":false,"numPhotos":9,"operation":"sale","parkingSpace":null,"price":108000.0,"priceByArea":1800.0,"propertyCode":"92214063","propertyType":"flat","province":"Madrid","rooms":2,"showAddress":false,"size":60.0,"status":"good","suggestedTexts":{"subtitle":"Casco Hist\u00f3rico de Vallecas, Madrid","title":"Piso en Calle de Tiedra"},"thumbnail":"https:\/\/img3.idealista.com\/blur\/WEB_LISTING\/0\/id.pro.es.image.master\/e2\/27\/0a\/833833683.jpg","topNewDevelopment":false,"url":"https:\/\/www.idealista.com\/inmueble\/92214063\/"}
{"address":"Calle de Pe\u00f1a Ambote","bathrooms":1,"country":"es","detailedType":{"typology":"flat"},"district":"Villa de Vallecas","exterior":true,"externalReference":null,"floor":"3","has360":false,"has3DTour":false,"hasLift":false,"hasPlan":false,"hasStaging":false,"hasVideo":false,"latitude":40.3767299,"longitude":-3.6233215,"municipality":"Madrid","neighborhood":"Casco Hist\u00f3rico de Vallecas","newDevelopment":false,"numPhotos":1,"operation":"sale","parkingSpace":null,"price":89000.0,"priceByArea":1483.0,"propertyCode":"92227041","propertyType":"flat","province":"Madrid","rooms":3,"showAddress":false,"size":60.0,"status":"renew","suggestedTexts":{"subtitle":"Casco Hist\u00f3rico de Vallecas, Madrid","title":"Piso en Calle de Pe\u00f1a Ambote"},"thumbnail":"https:\/\/img3.idealista.com\/blur\/WEB_LISTING\/0\/id.pro.es.image.master\/92\/e7\/70\/834182188.jpg","topNewDevelopment":false,"url":"https:\/\/www.idealista.com\/inmueble\/92227041\/"}
{"address":"Calle del Puerto de Pozazal, 37","bathrooms":1,"country":"es","detailedType":{"typology":"flat"},"district":"Villa de Vallecas","exterior":true,"externalReference":null,"floor":"3","has360":false,"has3DTour":false,"hasLift":true,"hasPlan":false,"hasStaging":false,"hasVideo":false,"latitude":40.3796414,"longitude":-3.6333071,"municipality":"Madrid","neighborhood":"Ensanche de Vallecas - La Gavia","newDevelopment":false,"numPhotos":23,"operation":"sale","parkingSpace":null,"price":118000.0,"priceByArea":2145.0,"propertyCode":"87424278","propertyType":"flat","province":"Madrid","rooms":1,"showAddress":true,"size":55.0,"status":"good","suggestedTexts":{"subtitle":"Ensanche de Vallecas - La Gavia, Madrid","title":"Piso en Calle del Puerto de Pozazal, 37"},"thumbnail":"https:\/\/img3.idealista.com\/blur\/WEB_LISTING\/0\/id.pro.es.image.master\/54\/79\/c5\/720677774.jpg","topNewDevelopment":false,"url":"https:\/\/www.idealista.com\/inmueble\/87424278\/"}
{"address":"Calle de Javier de Burgos","bathrooms":2,"country":"es","detailedType":{"typology":"flat"},"district":"Villa de Vallecas","exterior":true,"externalReference":"Rafael Lopez","floor":"bj","has360":false,"has3DTour":false,"hasLift":false,"hasPlan":false,"hasStaging":false,"hasVideo":false,"latitude":40.3816127,"longitude":-3.6213948,"municipality":"Madrid","neighborhood":"Casco Hist\u00f3rico de Vallecas","newDevelopment":false,"numPhotos":23,"operation":"sale","parkingSpace":null,"price":113000.0,"priceByArea":1256.0,"propertyCode":"91819065","propertyType":"flat","province":"Madrid","rooms":4,"showAddress":false,"size":90.0,"status":"good","suggestedTexts":{"subtitle":"Casco Hist\u00f3rico de Vallecas, Madrid","title":"Piso en Calle de Javier de Burgos"},"thumbnail":"https:\/\/img3.idealista.com\/blur\/WEB_LISTING\/0\/id.pro.es.image.master\/b4\/2b\/06\/824047620.jpg","topNewDevelopment":false,"url":"https:\/\/www.idealista.com\/inmueble\/91819065\/"}
{"address":"Calle Puerto del Bruch","bathrooms":1,"country":"es","detailedType":{"typology":"flat"},"district":"Villa de Vallecas","exterior":false,"externalReference":"540002807","floor":null,"has360":false,"has3DTour":false,"hasLift":false,"hasPlan":true,"hasStaging":false,"hasVideo":false,"latitude":40.3841976,"longitude":-3.6189218,"municipality":"Madrid","neighborhood":"Santa Eugenia","newDevelopment":false,"numPhotos":13,"operation":"sale","parkingSpace":null,"price":110000.0,"priceByArea":1746.0,"propertyCode":"90258152","propertyType":"flat","province":"Madrid","rooms":3,"showAddress":false,"size":63.0,"status":"good","suggestedTexts":{"subtitle":"Santa Eugenia, Madrid","title":"Piso en Calle Puerto del Bruch"},"thumbnail":"https:\/\/img3.idealista.com\/blur\/WEB_LISTING\/0\/id.pro.es.image.master\/dd\/ac\/29\/786521105.jpg","topNewDevelopment":false,"url":"https:\/\/www.idealista.com\/inmueble\/90258152\/"}
{"address":"puerto lumbreras, 26","bathrooms":1,"country":"es","detailedType":{"typology":"flat"},"district":"Villa de Vallecas","exterior":true,"externalReference":"PUERTO LUMBRERAS","floor":"1","has360":false,"has3DTour":false,"hasLift":false,"hasPlan":false,"hasStaging":false,"hasVideo":false,"latitude":40.3814017,"longitude":-3.6191376,"municipality":"Madrid","neighborhood":"Casco Hist\u00f3rico de Vallecas","newDevelopment":false,"numPhotos":1,"operation":"sale","parkingSpace":null,"price":98000.0,"priceByArea":1581.0,"propertyCode":"92204536","propertyType":"flat","province":"Madrid","rooms":3,"showAddress":true,"size":62.0,"status":"good","suggestedTexts":{"subtitle":"Casco Hist\u00f3rico de Vallecas, Madrid","title":"Piso en puerto lumbreras, 26"},"thumbnail":"https:\/\/img3.idealista.com\/blur\/WEB_LISTING\/0\/id.pro.es.image.master\/b9\/01\/34\/833548488.jpg","topNewDevelopment":false,"url":"https:\/\/www.idealista.com\/inmueble\/92204536\/"}
{"address":"Avenida Villa de Vallecas s\/n","bathrooms":1,"country":"es","detailedType":{"typology":"flat"},"district":"Villa de Vallecas","exterior":true,"externalReference":"311 euros al mes . Congosto","floor":"1","has360":false,"has3DTour":false,"hasLift":false,"hasPlan":true,"hasStaging":false,"hasVideo":true,"latitude":40.3729144,"longitude":-3.6156761,"municipality":"Madrid","neighborhood":"Casco Hist\u00f3rico de Vallecas","newDevelopment":false,"numPhotos":3,"operation":"sale","parkingSpace":null,"price":93000.0,"priceByArea":1691.0,"propertyCode":"91884877","propertyType":"flat","province":"Madrid","rooms":2,"showAddress":true,"size":55.0,"status":"good","suggestedTexts":{"subtitle":"Casco Hist\u00f3rico de Vallecas, Madrid","title":"Piso en Avenida Villa de Vallecas s\/n"},"thumbnail":"https:\/\/img3.idealista.com\/blur\/WEB_LISTING\/0\/id.pro.es.image.master\/44\/12\/95\/825614876.jpg","topNewDevelopment":false,"url":"https:\/\/www.idealista.com\/inmueble\/91884877\/"}
{"address":"barrio Casco Hist\u00f3rico de Vallecas","bathrooms":1,"country":"es","detailedType":{"typology":"flat"},"district":"Villa de Vallecas","exterior":false,"externalReference":"VI-000-020-713-846","floor":null,"has360":false,"has3DTour":false,"hasLift":null,"hasPlan":true,"hasStaging":false,"hasVideo":false,"latitude":40.3833477,"longitude":-3.6196837,"municipality":"Madrid","neighborhood":"Casco Hist\u00f3rico de Vallecas","newDevelopment":false,"numPhotos":46,"operation":"sale","parkingSpace":null,"price":100000.0,"priceByArea":1563.0,"propertyCode":"89231732","propertyType":"flat","province":"Madrid","rooms":3,"showAddress":false,"size":64.0,"status":"good","suggestedTexts":{"subtitle":"Casco Hist\u00f3rico de Vallecas, Madrid","title":"Piso"},"thumbnail":"https:\/\/img3.idealista.com\/blur\/WEB_LISTING\/0\/id.pro.es.image.master\/1f\/f7\/e7\/766591755.jpg","topNewDevelopment":false,"url":"https:\/\/www.idealista.com\/inmueble\/89231732\/"}
{"address":"Calle de la Sierra de Encinares","bathrooms":1,"country":"es","detailedType":{"typology":"flat"},"district":"Villa de Vallecas","exterior":true,"externalReference":"Fhog-1123","floor":"2","has360":false,"has3DTour":false,"hasLift":false,"hasPlan":true,"hasStaging":false,"hasVideo":true,"latitude":40.3799095,"longitude":-3.6209491,"municipality":"Madrid","neighborhood":"Casco Hist\u00f3rico de Vallecas","newDevelopment":false,"numPhotos":13,"operation":"sale","parkingSpace":null,"price":119500.0,"priceByArea":1660.0,"propertyCode":"91031118","propertyType":"flat","province":"Madrid","rooms":2,"showAddress":false,"size":72.0,"status":"good","suggestedTexts":{"subtitle":"Casco Hist\u00f3rico de Vallecas, Madrid","title":"Piso en Calle de la Sierra de Encinares"},"thumbnail":"https:\/\/img3.idealista.com\/blur\/WEB_LISTING\/0\/id.pro.es.image.master\/d2\/30\/49\/805244232.jpg","topNewDevelopment":false,"url":"https:\/\/www.idealista.com\/inmueble\/91031118\/"}
{"address":"Calle Puerto del Bruch","bathrooms":1,"country":"es","detailedType":{"typology":"flat"},"district":"Villa de Vallecas","exterior":true,"externalReference":"Fhog-1107","floor":"3","has360":false,"has3DTour":false,"hasLift":false,"hasPlan":true,"hasStaging":false,"hasVideo":true,"latitude":40.3807346,"longitude":-3.6192844,"municipality":"Madrid","neighborhood":"Casco Hist\u00f3rico de Vallecas","newDevelopment":false,"numPhotos":12,"operation":"sale","parkingSpace":null,"price":110000.0,"priceByArea":1746.0,"propertyCode":"90769777","propertyType":"flat","province":"Madrid","rooms":3,"showAddress":false,"size":63.0,"status":"good","suggestedTexts":{"subtitle":"Casco Hist\u00f3rico de Vallecas, Madrid","title":"Piso en Calle Puerto del Bruch"},"thumbnail":"https:\/\/img3.idealista.com\/blur\/WEB_LISTING\/0\/id.pro.es.image.master\/59\/b7\/bf\/798149783.jpg","topNewDevelopment":false,"url":"https:\/\/www.idealista.com\/inmueble\/90769777\/"}
{"address":"Monte Aya, 17","bathrooms":2,"country":"es","detailedType":{"typology":"chalet","subTypology":"terracedHouse"},"district":"Villa de Vallecas","exterior":false,"externalReference":"98","floor":null,"has360":false,"has3DTour":false,"hasLift":null,"hasPlan":false,"hasStaging":false,"hasVideo":false,"latitude":40.3773457,"longitude":-3.621852,"municipality":"Madrid","neighborhood":"Casco Hist\u00f3rico de Vallecas","newDevelopment":false,"numPhotos":25,"operation":"sale","parkingSpace":null,"price":98000.0,"priceByArea":980.0,"propertyCode":"92149717","propertyType":"chalet","province":"Madrid","rooms":3,"showAddress":true,"size":100.0,"status":"good","suggestedTexts":{"subtitle":"Casco Hist\u00f3rico de Vallecas, Madrid","title":"Chalet adosado en Monte Aya, 17"},"thumbnail":"https:\/\/img3.idealista.com\/blur\/WEB_LISTING\/0\/id.pro.es.image.master\/8a\/94\/49\/832147522.jpg","topNewDevelopment":false,"url":"https:\/\/www.idealista.com\/inmueble\/92149717\/"}
{"address":"Calle de Pe\u00f1a Ambote","bathrooms":1,"country":"es","detailedType":{"typology":"flat"},"district":"Villa de Vallecas","exterior":true,"externalReference":"CM-10175","floor":"2","has360":false,"has3DTour":false,"hasLift":false,"hasPlan":false,"hasStaging":false,"hasVideo":false,"latitude":40.3764761,"longitude":-3.6235515,"municipality":"Madrid","neighborhood":"Casco Hist\u00f3rico de Vallecas","newDevelopment":false,"numPhotos":24,"operation":"sale","parkingSpace":null,"price":114000.0,"priceByArea":1676.0,"propertyCode":"91472328","propertyType":"flat","province":"Madrid","rooms":2,"showAddress":false,"size":68.0,"status":"good","suggestedTexts":{"subtitle":"Casco Hist\u00f3rico de Vallecas, Madrid","title":"Piso en Calle de Pe\u00f1a Ambote"},"thumbnail":"https:\/\/img3.idealista.com\/blur\/WEB_LISTING\/0\/id.pro.es.image.master\/af\/27\/a6\/817505251.jpg","topNewDevelopment":false,"url":"https:\/\/www.idealista.com\/inmueble\/91472328\/"}
{"address":"Calle de la Sierra de Encinares","bathrooms":1,"country":"es","detailedType":{"typology":"flat"},"district":"Villa de Vallecas","exterior":true,"externalReference":"IDM 0190","floor":"2","has360":false,"has3DTour":false,"hasLift":false,"hasPlan":false,"hasStaging":false,"hasVideo":false,"latitude":40.379051,"longitude":-3.6213125,"municipality":"Madrid","neighborhood":"Casco Hist\u00f3rico de Vallecas","newDevelopment":false,"numPhotos":19,"operation":"sale","parkingSpace":null,"price":115000.0,"priceByArea":1045.0,"propertyCode":"92171691","propertyType":"flat","province":"Madrid","rooms":3,"showAddress":false,"size":110.0,"status":"renew","suggestedTexts":{"subtitle":"Casco Hist\u00f3rico de Vallecas, Madrid","title":"Piso en Calle de la Sierra de Encinares"},"thumbnail":"https:\/\/img3.idealista.com\/blur\/WEB_LISTING\/0\/id.pro.es.image.master\/46\/9d\/cb\/832710056.jpg","topNewDevelopment":false,"url":"https:\/\/www.idealista.com\/inmueble\/92171691\/"}
{"address":"Calle del Puerto de Porzuna","bathrooms":1,"country":"es","detailedType":{"typology":"flat"},"district":"Villa de Vallecas","exterior":true,"externalReference":"VILLA DE VALLECAS 100K","floor":"3","has360":false,"has3DTour":false,"hasLift":false,"hasPlan":false,"hasStaging":false,"hasVideo":false,"latitude":40.3764362,"longitude":-3.623752,"municipality":"Madrid","neighborhood":"Casco Hist\u00f3rico de Vallecas","newDevelopment":false,"numPhotos":18,"operation":"sale","parkingSpace":null,"price":100000.0,"priceByArea":1667.0,"propertyCode":"92160003","propertyType":"flat","province":"Madrid","rooms":2,"showAddress":false,"size":60.0,"status":"good","suggestedTexts":{"subtitle":"Casco Hist\u00f3rico de Vallecas, Madrid","title":"Piso en Calle del Puerto de Porzuna"},"thumbnail":"https:\/\/img3.idealista.com\/blur\/WEB_LISTING\/0\/id.pro.es.image.master\/ef\/5c\/35\/832396253.jpg","topNewDevelopment":false,"url":"https:\/\/www.idealista.com\/inmueble\/92160003\/"}
{"address":"Calle Cerro del Murmullo, 13","bathrooms":1,"country":"es","detailedType":{"typology":"flat","subTypology":"penthouse"},"district":"Villa de Vallecas","exterior":true,"externalReference":"MC77188131","floor":"2","has360":false,"has3DTour":false,"hasLift":true,"hasPlan":false,"hasStaging":false,"hasVideo":false,"latitude":40.3651532,"longitude":-3.5831848,"municipality":"Madrid","neighborhood":"Ensanche de Vallecas - La Gavia","newDevelopment":false,"numPhotos":28,"operation":"sale","parkingSpace":{"hasParkingSpace":true,"isParkingSpaceIncludedInPrice":true},"price":119000.0,"priceByArea":1983.0,"propertyCode":"87993990","propertyType":"penthouse","province":"Madrid","rooms":1,"showAddress":true,"size":60.0,"status":"good","suggestedTexts":{"subtitle":"Ensanche de Vallecas - La Gavia, Madrid","title":"\u00c1tico en Calle Cerro del Murmullo, 13"},"thumbnail":"https:\/\/img3.idealista.com\/blur\/WEB_LISTING\/0\/id.pro.es.image.master\/5a\/c2\/16\/793303062.jpg","topNewDevelopment":false,"url":"https:\/\/www.idealista.com\/inmueble\/87993990\/"}
{"address":"CERRO DEL MURMULLO, 13","bathrooms":1,"country":"es","detailedType":{"typology":"flat","subTypology":"studio"},"district":"Villa de Vallecas","exterior":true,"externalReference":"LOFT223","floor":"2","has360":false,"has3DTour":false,"hasLift":true,"hasPlan":false,"hasStaging":false,"hasVideo":false,"latitude":40.3645751,"longitude":-3.5833714,"municipality":"Madrid","neighborhood":"Ensanche de Vallecas - La Gavia","newDevelopment":false,"numPhotos":25,"operation":"sale","parkingSpace":{"hasParkingSpace":true,"isParkingSpaceIncludedInPrice":true},"price":110000.0,"priceByArea":1897.0,"propertyCode":"92151634","propertyType":"studio","province":"Madrid","rooms":0,"showAddress":true,"size":58.0,"status":"good","suggestedTexts":{"subtitle":"Ensanche de Vallecas - La Gavia, Madrid","title":"Estudio en CERRO DEL MURMULLO, 13"},"thumbnail":"https:\/\/img3.idealista.com\/blur\/WEB_LISTING\/0\/id.pro.es.image.master\/8a\/e7\/57\/832188545.jpg","topNewDevelopment":false,"url":"https:\/\/www.idealista.com\/inmueble\/92151634\/"}
{"address":"Calle Puerto del Bruch","bathrooms":1,"country":"es","detailedType":{"typology":"flat"},"district":"Villa de Vallecas","exterior":false,"externalReference":"510043593","floor":null,"has360":false,"has3DTour":false,"hasLift":false,"hasPlan":false,"hasStaging":false,"hasVideo":false,"latitude":40.3806976,"longitude":-3.6179218,"municipality":"Madrid","neighborhood":"Santa Eugenia","newDevelopment":false,"numPhotos":30,"operation":"sale","parkingSpace":null,"price":100000.0,"priceByArea":1563.0,"propertyCode":"90258045","propertyType":"flat","province":"Madrid","rooms":3,"showAddress":false,"size":64.0,"status":"good","suggestedTexts":{"subtitle":"Santa Eugenia, Madrid","title":"Piso en Calle Puerto del Bruch"},"thumbnail":"https:\/\/img3.idealista.com\/blur\/WEB_LISTING\/0\/id.pro.es.image.master\/78\/bb\/cf\/786518821.jpg","topNewDevelopment":false,"url":"https:\/\/www.idealista.com\/inmueble\/90258045\/"}
{"address":"Camino de la Suerte","bathrooms":1,"country":"es","detailedType":{"typology":"flat"},"district":"Villa de Vallecas","exterior":true,"externalReference":"Pablo Carreras","floor":"bj","has360":false,"has3DTour":false,"hasLift":false,"hasPlan":false,"hasStaging":false,"hasVideo":false,"latitude":40.3777241,"longitude":-3.6198992,"municipality":"Madrid","neighborhood":"Casco Hist\u00f3rico de Vallecas","newDevelopment":false,"numPhotos":11,"operation":"sale","parkingSpace":null,"price":79900.0,"priceByArea":1567.0,"propertyCode":"92043779","propertyType":"flat","province":"Madrid","rooms":2,"showAddress":false,"size":51.0,"status":"renew","suggestedTexts":{"subtitle":"Casco Hist\u00f3rico de Vallecas, Madrid","title":"Piso en Camino de la Suerte"},"thumbnail":"https:\/\/img3.idealista.com\/blur\/WEB_LISTING\/0\/id.pro.es.image.master\/a0\/41\/87\/829414180.jpg","topNewDevelopment":false,"url":"https:\/\/www.idealista.com\/inmueble\/92043779\/"}
{"address":"Calle de Pe\u00f1a Nueva","bathrooms":1,"country":"es","detailedType":{"typology":"flat"},"district":"Villa de Vallecas","exterior":true,"externalReference":null,"floor":"3","has360":false,"has3DTour":false,"hasLift":false,"hasPlan":false,"hasStaging":false,"hasVideo":false,"latitude":40.3722646,"longitude":-3.6218031,"municipality":"Madrid","neighborhood":"Casco Hist\u00f3rico de Vallecas","newDevelopment":false,"numPhotos":13,"operation":"sale","parkingSpace":null,"price":95000.0,"priceByArea":1827.0,"propertyCode":"92132436","propertyType":"flat","province":"Madrid","rooms":2,"showAddress":false,"size":52.0,"status":"renew","suggestedTexts":{"subtitle":"Casco Hist\u00f3rico de Vallecas, Madrid","title":"Piso en Calle de Pe\u00f1a Nueva"},"thumbnail":"https:\/\/img3.idealista.com\/blur\/WEB_LISTING\/0\/id.pro.es.image.master\/d4\/a5\/51\/831786755.jpg","topNewDevelopment":false,"url":"https:\/\/www.idealista.com\/inmueble\/92132436\/"}
{"address":"Puerto Del Escudo","bathrooms":1,"country":"es","detailedType":{"typology":"flat"},"district":"Villa de Vallecas","exterior":true,"externalReference":"Mario P\u00e9rez","floor":"bj","has360":false,"has3DTour":false,"hasLift":false,"hasPlan":false,"hasStaging":false,"hasVideo":false,"latitude":40.3810797,"longitude":-3.62585,"municipality":"Madrid","neighborhood":"Casco Hist\u00f3rico de Vallecas","newDevelopment":false,"numPhotos":16,"operation":"sale","parkingSpace":null,"price":93000.0,"priceByArea":1860.0,"propertyCode":"92006836","propertyType":"flat","province":"Madrid","rooms":2,"showAddress":false,"size":50.0,"status":"good","suggestedTexts":{"subtitle":"Casco Hist\u00f3rico de Vallecas, Madrid","title":"Piso en Puerto Del Escudo"},"thumbnail":"https:\/\/img3.idealista.com\/blur\/WEB_LISTING\/0\/id.pro.es.image.master\/a3\/c0\/e7\/828493777.jpg","topNewDevelopment":false,"url":"https:\/\/www.idealista.com\/inmueble\/92006836\/"}
{"address":"Calle Virgen de los Remedios","bathrooms":1,"country":"es","detailedType":{"typology":"flat"},"district":"Villa de Vallecas","exterior":true,"externalReference":null,"floor":"bj","has360":false,"has3DTour":false,"hasLift":true,"hasPlan":false,"hasStaging":false,"hasVideo":false,"latitude":40.3744009,"longitude":-3.621927,"municipality":"Madrid","neighborhood":"Casco Hist\u00f3rico de Vallecas","newDevelopment":false,"numPhotos":23,"operation":"sale","parkingSpace":null,"price":80000.0,"priceByArea":2105.0,"propertyCode":"88874052","propertyType":"flat","province":"Madrid","rooms":1,"showAddress":false,"size":38.0,"status":"good","suggestedTexts":{"subtitle":"Casco Hist\u00f3rico de Vallecas, Madrid","title":"Piso en Calle Virgen de los Remedios"},"thumbnail":"https:\/\/img3.idealista.com\/blur\/WEB_LISTING\/0\/id.pro.es.image.master\/5c\/df\/a3\/757579375.jpg","topNewDevelopment":false,"url":"https:\/\/www.idealista.com\/inmueble\/88874052\/"}
{"address":"Calle Puerto de Lumbreras, 26","bathrooms":1,"country":"es","detailedType":{"typology":"flat"},"district":"Villa de Vallecas","exterior":true,"externalReference":"Lumbreras","floor":"1","has360":false,"has3DTour":false,"hasLift":false,"hasPlan":false,"hasStaging":false,"hasVideo":false,"latitude":40.3814017,"longitude":-3.6191376,"municipality":"Madrid","neighborhood":"Casco Hist\u00f3rico de Vallecas","newDevelopment":false,"numPhotos":2,"operation":"sale","parkingSpace":null,"price":98000.0,"priceByArea":1885.0,"propertyCode":"92202164","propertyType":"flat","province":"Madrid","rooms":2,"showAddress":true,"size":52.0,"status":"renew","suggestedTexts":{"subtitle":"Casco Hist\u00f3rico de Vallecas, Madrid","title":"Piso en Calle Puerto de Lumbreras, 26"},"thumbnail":"https:\/\/img3.idealista.com\/blur\/WEB_LISTING\/0\/id.pro.es.image.master\/fa\/73\/ed\/833474876.jpg","topNewDevelopment":false,"url":"https:\/\/www.idealista.com\/inmueble\/92202164\/"}
{"address":"barrio Casco Hist\u00f3rico de Vallecas","bathrooms":1,"country":"es","detailedType":{"typology":"flat"},"district":"Villa de Vallecas","exterior":true,"externalReference":null,"floor":"1","has360":false,"has3DTour":false,"hasLift":false,"hasPlan":true,"hasStaging":false,"hasVideo":true,"latitude":40.3778664,"longitude":-3.6179629,"municipality":"Madrid","neighborhood":"Casco Hist\u00f3rico de Vallecas","newDevelopment":false,"numPhotos":14,"operation":"sale","parkingSpace":{"hasParkingSpace":true,"isParkingSpaceIncludedInPrice":false,"parkingSpacePrice":20000.0},"price":102000.0,"priceByArea":1700.0,"propertyCode":"88027077","propertyType":"flat","province":"Madrid","rooms":2,"showAddress":false,"size":60.0,"status":"renew","suggestedTexts":{"subtitle":"Casco Hist\u00f3rico de Vallecas, Madrid","title":"Piso"},"thumbnail":"https:\/\/img3.idealista.com\/blur\/WEB_LISTING\/0\/id.pro.es.image.master\/f3\/69\/43\/758088861.jpg","topNewDevelopment":false,"url":"https:\/\/www.idealista.com\/inmueble\/88027077\/"}
{"address":"Camino de la Suerte","bathrooms":1,"country":"es","detailedType":{"typology":"flat"},"district":"Villa de Vallecas","exterior":true,"externalReference":"C\/ Camino de la Suerte","floor":"3","has360":false,"has3DTour":false,"hasLift":false,"hasPlan":false,"hasStaging":false,"hasVideo":false,"latitude":40.3770199,"longitude":-3.617559,"municipality":"Madrid","neighborhood":"Casco Hist\u00f3rico de Vallecas","newDevelopment":false,"numPhotos":5,"operation":"sale","parkingSpace":null,"price":119570.0,"priceByArea":2391.0,"propertyCode":"92165316","propertyType":"flat","province":"Madrid","rooms":2,"showAddress":false,"size":50.0,"status":"good","suggestedTexts":{"subtitle":"Casco Hist\u00f3rico de Vallecas, Madrid","title":"Piso en Camino de la Suerte"},"thumbnail":"https:\/\/img3.idealista.com\/blur\/WEB_LISTING\/0\/id.pro.es.image.master\/4b\/42\/17\/832535208.jpg","topNewDevelopment":false,"url":"https:\/\/www.idealista.com\/inmueble\/92165316\/"}
{"address":"Calle Muela de San Juan","bathrooms":1,"country":"es","detailedType":{"typology":"flat"},"district":"Villa de Vallecas","exterior":true,"externalReference":"CNI752","floor":"3","has360":false,"has3DTour":false,"hasLift":false,"hasPlan":false,"hasStaging":false,"hasVideo":false,"latitude":40.3732301,"longitude":-3.6174074,"municipality":"Madrid","neighborhood":"Casco Hist\u00f3rico de Vallecas","newDevelopment":false,"numPhotos":14,"operation":"sale","parkingSpace":null,"price":110900.0,"priceByArea":2218.0,"propertyCode":"89691889","propertyType":"flat","province":"Madrid","rooms":2,"showAddress":false,"size":50.0,"status":"good","suggestedTexts":{"subtitle":"Casco Hist\u00f3rico de Vallecas, Madrid","title":"Piso en Calle Muela de San Juan"},"thumbnail":"https:\/\/img3.idealista.com\/blur\/WEB_LISTING\/0\/id.pro.es.image.master\/a0\/3b\/12\/774253852.jpg","topNewDevelopment":false,"url":"https:\/\/www.idealista.com\/inmueble\/89691889\/"}
{"address":"Calle Puerto de Benasque","bathrooms":1,"country":"es","detailedType":{"typology":"flat"},"district":"Villa de Vallecas","exterior":true,"externalReference":"CNI734","floor":"3","has360":false,"has3DTour":false,"hasLift":false,"hasPlan":false,"hasStaging":false,"hasVideo":false,"latitude":40.3756526,"longitude":-3.6229978,"municipality":"Madrid","neighborhood":"Casco Hist\u00f3rico de Vallecas","newDevelopment":false,"numPhotos":15,"operation":"sale","parkingSpace":null,"price":105000.0,"priceByArea":1750.0,"propertyCode":"88757716","propertyType":"flat","province":"Madrid","rooms":2,"showAddress":false,"size":60.0,"status":"good","suggestedTexts":{"subtitle":"Casco Hist\u00f3rico de Vallecas, Madrid","title":"Piso en Calle Puerto de Benasque"},"thumbnail":"https:\/\/img3.idealista.com\/blur\/WEB_LISTING\/0\/id.pro.es.image.master\/7a\/1a\/87\/755495743.jpg","topNewDevelopment":false,"url":"https:\/\/www.idealista.com\/inmueble\/88757716\/"}
{"address":"Calle Milmarcos","bathrooms":1,"country":"es","detailedType":{"typology":"flat"},"district":"Villa de Vallecas","exterior":true,"externalReference":"CNI744","floor":"2","has360":false,"has3DTour":false,"hasLift":false,"hasPlan":false,"hasStaging":false,"hasVideo":false,"latitude":40.3744023,"longitude":-3.6181754,"municipality":"Madrid","neighborhood":"Casco Hist\u00f3rico de Vallecas","newDevelopment":false,"numPhotos":11,"operation":"sale","parkingSpace":null,"price":99900.0,"priceByArea":1998.0,"propertyCode":"88902746","propertyType":"flat","province":"Madrid","rooms":2,"showAddress":false,"size":50.0,"status":"good","suggestedTexts":{"subtitle":"Casco Hist\u00f3rico de Vallecas, Madrid","title":"Piso en Calle Milmarcos"},"thumbnail":"https:\/\/img3.idealista.com\/blur\/WEB_LISTING\/0\/id.pro.es.image.master\/50\/79\/d0\/758307428.jpg","topNewDevelopment":false,"url":"https:\/\/www.idealista.com\/inmueble\/88902746\/"}
{"address":"Calle de la Sierra Vieja","bathrooms":1,"country":"es","detailedType":{"typology":"flat"},"district":"Villa de Vallecas","exterior":true,"externalReference":"Mario P\u00e9rez","floor":"2","has360":false,"has3DTour":false,"hasLift":false,"hasPlan":false,"hasStaging":false,"hasVideo":false,"latitude":40.3778233,"longitude":-3.6260663,"municipality":"Madrid","neighborhood":"Casco Hist\u00f3rico de Vallecas","newDevelopment":false,"numPhotos":18,"operation":"sale","parkingSpace":null,"price":105000.0,"priceByArea":1842.0,"propertyCode":"91221103","propertyType":"flat","province":"Madrid","rooms":2,"showAddress":false,"size":57.0,"status":"good","suggestedTexts":{"subtitle":"Casco Hist\u00f3rico de Vallecas, Madrid","title":"Piso en Calle de la Sierra Vieja"},"thumbnail":"https:\/\/img3.idealista.com\/blur\/WEB_LISTING\/0\/id.pro.es.image.master\/8b\/03\/4f\/809469430.jpg","topNewDevelopment":false,"url":"https:\/\/www.idealista.com\/inmueble\/91221103\/"}
{"address":"Carretera Villaverde a Vallecas","bathrooms":1,"country":"es","detailedType":{"typology":"flat"},"district":"Villa de Vallecas","exterior":true,"externalReference":null,"floor":"1","has360":false,"has3DTour":false,"hasLift":true,"hasPlan":false,"hasStaging":false,"hasVideo":false,"latitude":40.37376,"longitude":-3.63232,"municipality":"Madrid","neighborhood":"Ensanche de Vallecas - La Gavia","newDevelopment":false,"numPhotos":26,"operation":"sale","parkingSpace":{"hasParkingSpace":true,"isParkingSpaceIncludedInPrice":true},"price":96000.0,"priceByArea":1920.0,"propertyCode":"91577853","propertyType":"flat","province":"Madrid","rooms":1,"showAddress":false,"size":50.0,"status":"good","suggestedTexts":{"subtitle":"Ensanche de Vallecas - La Gavia, Madrid","title":"Piso en Carretera Villaverde a Vallecas"},"thumbnail":"https:\/\/img3.idealista.com\/blur\/WEB_LISTING\/0\/id.pro.es.image.master\/5c\/a9\/d1\/818034724.jpg","topNewDevelopment":false,"url":"https:\/\/www.idealista.com\/inmueble\/91577853\/"}
{"address":"Calle de la Sierra de Encinares","bathrooms":1,"country":"es","detailedType":{"typology":"flat"},"district":"Villa de Vallecas","exterior":true,"externalReference":"Sierra Encinares","floor":"2","has360":false,"has3DTour":false,"hasLift":false,"hasPlan":true,"hasStaging":false,"hasVideo":false,"latitude":40.3809095,"longitude":-3.6193491,"municipality":"Madrid","neighborhood":"Casco Hist\u00f3rico de Vallecas","newDevelopment":false,"numPhotos":9,"operation":"sale","parkingSpace":null,"price":119500.0,"priceByArea":1660.0,"propertyCode":"86677435","propertyType":"flat","province":"Madrid","rooms":2,"showAddress":false,"size":72.0,"status":"good","suggestedTexts":{"subtitle":"Casco Hist\u00f3rico de Vallecas, Madrid","title":"Piso en Calle de la Sierra de Encinares"},"thumbnail":"https:\/\/img3.idealista.com\/blur\/WEB_LISTING\/0\/id.pro.es.image.master\/2c\/98\/d6\/699739309.jpg","topNewDevelopment":false,"url":"https:\/\/www.idealista.com\/inmueble\/86677435\/"}
{"address":"barrio Casco Hist\u00f3rico de Vallecas","bathrooms":1,"country":"es","detailedType":{"typology":"flat"},"district":"Villa de Vallecas","exterior":false,"externalReference":"VI-000-020-715-391","floor":null,"has360":false,"has3DTour":false,"hasLift":null,"hasPlan":true,"hasStaging":false,"hasVideo":false,"latitude":40.3795346,"longitude":-3.6156844,"municipality":"Madrid","neighborhood":"Casco Hist\u00f3rico de Vallecas","newDevelopment":false,"numPhotos":13,"operation":"sale","parkingSpace":null,"price":110000.0,"priceByArea":1746.0,"propertyCode":"90082344","propertyType":"flat","province":"Madrid","rooms":3,"showAddress":false,"size":63.0,"status":"good","suggestedTexts":{"subtitle":"Casco Hist\u00f3rico de Vallecas, Madrid","title":"Piso"},"thumbnail":"https:\/\/img3.idealista.com\/blur\/WEB_LISTING\/0\/id.pro.es.image.master\/63\/8a\/5f\/782771663.jpg","topNewDevelopment":false,"url":"https:\/\/www.idealista.com\/inmueble\/90082344\/"}
{"address":"barrio Casco Hist\u00f3rico de Vallecas","bathrooms":1,"country":"es","detailedType":{"typology":"flat"},"district":"Villa de Vallecas","exterior":false,"externalReference":"VI-000-030-686-599","floor":null,"has360":false,"has3DTour":false,"hasLift":null,"hasPlan":true,"hasStaging":false,"hasVideo":false,"latitude":40.3828095,"longitude":-3.6214491,"municipality":"Madrid","neighborhood":"Casco Hist\u00f3rico de Vallecas","newDevelopment":false,"numPhotos":13,"operation":"sale","parkingSpace":null,"price":119500.0,"priceByArea":1660.0,"propertyCode":"91103026","propertyType":"flat","province":"Madrid","rooms":2,"showAddress":false,"size":72.0,"status":"good","suggestedTexts":{"subtitle":"Casco Hist\u00f3rico de Vallecas, Madrid","title":"Piso"},"thumbnail":"https:\/\/img3.idealista.com\/blur\/WEB_LISTING\/0\/id.pro.es.image.master\/24\/3d\/35\/806822305.jpg","topNewDevelopment":false,"url":"https:\/\/www.idealista.com\/inmueble\/91103026\/"}
{"address":"barrio Ensanche de Vallecas - La Gavia","bathrooms":1,"country":"es","detailedType":{"typology":"flat"},"district":"Villa de Vallecas","exterior":true,"externalReference":"CRG-025","floor":"3","has360":false,"has3DTour":false,"hasLift":null,"hasPlan":false,"hasStaging":false,"hasVideo":false,"latitude":40.3619207,"longitude":-3.6086469,"municipality":"Madrid","neighborhood":"Ensanche de Vallecas - La Gavia","newDevelopment":false,"numPhotos":37,"operation":"sale","parkingSpace":null,"price":102000.0,"priceByArea":1417.0,"propertyCode":"91851962","propertyType":"flat","province":"Madrid","rooms":3,"showAddress":false,"size":72.0,"status":"good","suggestedTexts":{"subtitle":"Ensanche de Vallecas - La Gavia, Madrid","title":"Piso"},"thumbnail":"https:\/\/img3.idealista.com\/blur\/WEB_LISTING\/0\/id.pro.es.image.master\/aa\/47\/46\/829360757.jpg","topNewDevelopment":false,"url":"https:\/\/www.idealista.com\/inmueble\/91851962\/"}
{"address":"Calle Milmarcos","bathrooms":1,"country":"es","detailedType":{"typology":"flat"},"district":"Villa de Vallecas","exterior":true,"externalReference":"CNI751","floor":"bj","has360":false,"has3DTour":false,"hasLift":false,"hasPlan":false,"hasStaging":false,"hasVideo":false,"latitude":40.3770738,"longitude":-3.6203599,"municipality":"Madrid","neighborhood":"Casco Hist\u00f3rico de Vallecas","newDevelopment":false,"numPhotos":9,"operation":"sale","parkingSpace":null,"price":99900.0,"priceByArea":1998.0,"propertyCode":"89446201","propertyType":"flat","province":"Madrid","rooms":2,"showAddress":false,"size":50.0,"status":"renew","suggestedTexts":{"subtitle":"Casco Hist\u00f3rico de Vallecas, Madrid","title":"Piso en Calle Milmarcos"},"thumbnail":"https:\/\/img3.idealista.com\/blur\/WEB_LISTING\/0\/id.pro.es.image.master\/3a\/cc\/53\/771618162.jpg","topNewDevelopment":false,"url":"https:\/\/www.idealista.com\/inmueble\/89446201\/"}
{"address":"Calle real de Arganda","bathrooms":1,"country":"es","detailedType":{"typology":"flat"},"district":"Villa de Vallecas","exterior":true,"externalReference":"AT 0177","floor":"2","has360":false,"has3DTour":false,"hasLift":true,"hasPlan":false,"hasStaging":false,"hasVideo":false,"latitude":40.3792919,"longitude":-3.6199132,"municipality":"Madrid","neighborhood":"Casco Hist\u00f3rico de Vallecas","newDevelopment":false,"numPhotos":10,"operation":"sale","parkingSpace":null,"price":105000.0,"priceByArea":2692.0,"propertyCode":"91987722","propertyType":"flat","province":"Madrid","rooms":1,"showAddress":false,"size":39.0,"status":"good","suggestedTexts":{"subtitle":"Casco Hist\u00f3rico de Vallecas, Madrid","title":"Piso en Calle real de Arganda"},"thumbnail":"https:\/\/img3.idealista.com\/blur\/WEB_LISTING\/0\/id.pro.es.image.master\/41\/74\/d0\/828024788.jpg","topNewDevelopment":false,"url":"https:\/\/www.idealista.com\/inmueble\/91987722\/"}
{"address":"Calle Puerto de Lumbreras, 41","bathrooms":1,"country":"es","detailedType":{"typology":"flat"},"district":"Villa de Vallecas","exterior":true,"externalReference":"6982","floor":"bj","has360":false,"has3DTour":false,"hasLift":false,"hasPlan":false,"hasStaging":false,"hasVideo":false,"latitude":40.3819223,"longitude":-3.620271,"municipality":"Madrid","neighborhood":"Casco Hist\u00f3rico de Vallecas","newDevelopment":false,"numPhotos":15,"operation":"sale","parkingSpace":null,"price":93000.0,"priceByArea":1576.0,"propertyCode":"91817062","propertyType":"flat","province":"Madrid","rooms":2,"showAddress":true,"size":59.0,"status":"renew","suggestedTexts":{"subtitle":"Casco Hist\u00f3rico de Vallecas, Madrid","title":"Piso en Calle Puerto de Lumbreras, 41"},"thumbnail":"https:\/\/img3.idealista.com\/blur\/WEB_LISTING\/0\/id.pro.es.image.master\/a2\/32\/40\/824000484.jpg","topNewDevelopment":false,"url":"https:\/\/www.idealista.com\/inmueble\/91817062\/"}
{"address":"Calle Puerto de Lumbreras","bathrooms":1,"country":"es","detailedType":{"typology":"flat"},"district":"Villa de Vallecas","exterior":true,"externalReference":null,"floor":"1","has360":false,"has3DTour":false,"hasLift":false,"hasPlan":false,"hasStaging":false,"hasVideo":false,"latitude":40.3818258,"longitude":-3.6191215,"municipality":"Madrid","neighborhood":"Casco Hist\u00f3rico de Vallecas","newDevelopment":false,"numPhotos":24,"operation":"sale","parkingSpace":null,"price":107500.0,"priceByArea":1654.0,"propertyCode":"91815710","propertyType":"flat","province":"Madrid","rooms":3,"showAddress":false,"size":65.0,"status":"good","suggestedTexts":{"subtitle":"Casco Hist\u00f3rico de Vallecas, Madrid","title":"Piso en Calle Puerto de Lumbreras"},"thumbnail":"https:\/\/img3.idealista.com\/blur\/WEB_LISTING\/0\/id.pro.es.image.master\/a6\/79\/4e\/823958380.jpg","topNewDevelopment":false,"url":"https:\/\/www.idealista.com\/inmueble\/91815710\/"}
{"address":"Traves\u00eda Puerto De Las Pilas","bathrooms":1,"country":"es","detailedType":{"typology":"flat"},"district":"Villa de Vallecas","exterior":true,"externalReference":"42632","floor":"3","has360":false,"has3DTour":false,"hasLift":false,"hasPlan":false,"hasStaging":false,"hasVideo":false,"latitude":40.3761039,"longitude":-3.6257949,"municipality":"Madrid","neighborhood":"Casco Hist\u00f3rico de Vallecas","newDevelopment":false,"numPhotos":10,"operation":"sale","parkingSpace":null,"price":102000.0,"priceByArea":1397.0,"propertyCode":"92004462","propertyType":"flat","province":"Madrid","rooms":3,"showAddress":false,"size":73.0,"status":"renew","suggestedTexts":{"subtitle":"Casco Hist\u00f3rico de Vallecas, Madrid","title":"Piso en Traves\u00eda Puerto De Las Pilas"},"thumbnail":"https:\/\/img3.idealista.com\/blur\/WEB_LISTING\/0\/id.pro.es.image.master\/35\/36\/ab\/828439434.jpg","topNewDevelopment":false,"url":"https:\/\/www.idealista.com\/inmueble\/92004462\/"}
{"address":"Calle Cerro del Murmullo","bathrooms":1,"country":"es","detailedType":{"typology":"flat","subTypology":"duplex"},"district":"Villa de Vallecas","exterior":true,"externalReference":null,"floor":"2","has360":false,"has3DTour":false,"hasLift":true,"hasPlan":false,"hasStaging":false,"hasVideo":false,"latitude":40.3633738,"longitude":-3.5854759,"municipality":"Madrid","neighborhood":"Ensanche de Vallecas - La Gavia","newDevelopment":false,"numPhotos":12,"operation":"sale","parkingSpace":{"hasParkingSpace":true,"isParkingSpaceIncludedInPrice":true},"price":110000.0,"priceByArea":2391.0,"propertyCode":"91322035","propertyType":"duplex","province":"Madrid","rooms":0,"showAddress":false,"size":46.0,"status":"good","suggestedTexts":{"subtitle":"Ensanche de Vallecas - La Gavia, Madrid","title":"D\u00faplex en Calle Cerro del Murmullo"},"thumbnail":"https:\/\/img3.idealista.com\/blur\/WEB_LISTING\/0\/id.pro.es.image.master\/2c\/7b\/80\/811923430.jpg","topNewDevelopment":false,"url":"https:\/\/www.idealista.com\/inmueble\/91322035\/"}
{"address":"Calle de Fuentespina","bathrooms":1,"country":"es","detailedType":{"typology":"flat"},"district":"Villa de Vallecas","exterior":true,"externalReference":null,"floor":"bj","has360":false,"has3DTour":false,"hasLift":true,"hasPlan":false,"hasStaging":false,"hasVideo":false,"latitude":40.3788448,"longitude":-3.6067921,"municipality":"Madrid","neighborhood":"Santa Eugenia","newDevelopment":false,"numPhotos":11,"operation":"sale","parkingSpace":null,"price":95000.0,"priceByArea":1319.0,"propertyCode":"87301649","propertyType":"flat","province":"Madrid","rooms":2,"showAddress":false,"size":72.0,"status":"renew","suggestedTexts":{"subtitle":"Santa Eugenia, Madrid","title":"Piso en Calle de Fuentespina"},"thumbnail":"https:\/\/img3.idealista.com\/blur\/WEB_LISTING\/0\/id.pro.es.image.master\/ed\/1d\/d6\/717120489.jpg","topNewDevelopment":false,"url":"https:\/\/www.idealista.com\/inmueble\/87301649\/"}
{"address":"VILLAVERDE A VALLECAS","bathrooms":1,"country":"es","detailedType":{"typology":"flat","subTypology":"duplex"},"district":"Villa de Vallecas","exterior":true,"externalReference":null,"floor":"bj","has360":false,"has3DTour":false,"hasLift":true,"hasPlan":false,"hasStaging":false,"hasVideo":false,"latitude":40.3749662,"longitude":-3.6306975,"municipality":"Madrid","neighborhood":"Ensanche de Vallecas - La Gavia","newDevelopment":false,"numPhotos":13,"operation":"sale","parkingSpace":{"hasParkingSpace":true,"isParkingSpaceIncludedInPrice":true},"price":82500.0,"priceByArea":1473.0,"propertyCode":"91737817","propertyType":"duplex","province":"Madrid","rooms":0,"showAddress":false,"size":56.0,"status":"good","suggestedTexts":{"subtitle":"Ensanche de Vallecas - La Gavia, Madrid","title":"D\u00faplex en VILLAVERDE A VALLECAS"},"thumbnail":"https:\/\/img3.idealista.com\/blur\/WEB_LISTING\/0\/id.pro.es.image.master\/e7\/75\/46\/822064331.jpg","topNewDevelopment":false,"url":"https:\/\/www.idealista.com\/inmueble\/91737817\/"}
{"address":"barrio Casco Hist\u00f3rico de Vallecas","bathrooms":1,"country":"es","detailedType":{"typology":"flat"},"district":"Villa de Vallecas","exterior":true,"externalReference":"CNI703","floor":"1","has360":false,"has3DTour":false,"hasLift":false,"hasPlan":false,"hasStaging":false,"hasVideo":false,"latitude":40.3778298,"longitude":-3.6211825,"municipality":"Madrid","neighborhood":"Casco Hist\u00f3rico de Vallecas","newDevelopment":false,"numPhotos":16,"operation":"sale","parkingSpace":null,"price":95000.0,"priceByArea":1900.0,"propertyCode":"87421713","propertyType":"flat","province":"Madrid","rooms":2,"showAddress":false,"size":50.0,"status":"good","suggestedTexts":{"subtitle":"Casco Hist\u00f3rico de Vallecas, Madrid","title":"Piso"},"thumbnail":"https:\/\/img3.idealista.com\/blur\/WEB_LISTING\/0\/id.pro.es.image.master\/18\/b1\/02\/720612899.jpg","topNewDevelopment":false,"url":"https:\/\/www.idealista.com\/inmueble\/87421713\/"}
{"address":"Calle de los Montes de Toledo, Madrid","bathrooms":1,"country":"es","detailedType":{"typology":"flat"},"district":"Villa de Vallecas","exterior":true,"externalReference":null,"floor":"3","has360":false,"has3DTour":false,"hasLift":false,"hasPlan":true,"hasStaging":false,"hasVideo":false,"latitude":40.3803949,"longitude":-3.621378,"municipality":"Madrid","neighborhood":"Casco Hist\u00f3rico de Vallecas","newDevelopment":false,"numPhotos":18,"operation":"sale","parkingSpace":null,"price":118000.0,"priceByArea":2000.0,"propertyCode":"90955943","propertyType":"flat","province":"Madrid","rooms":2,"showAddress":false,"size":59.0,"status":"good","suggestedTexts":{"subtitle":"Casco Hist\u00f3rico de Vallecas, Madrid","title":"Piso en Calle de los Montes de Toledo, Madrid"},"thumbnail":"https:\/\/img3.idealista.com\/blur\/WEB_LISTING\/0\/id.pro.es.image.master\/11\/ca\/8b\/640552684.jpg","topNewDevelopment":false,"url":"https:\/\/www.idealista.com\/inmueble\/90955943\/"}
{"address":"Calle Puerto de Alazores","bathrooms":1,"country":"es","detailedType":{"typology":"flat"},"district":"Villa de Vallecas","exterior":true,"externalReference":null,"floor":"4","has360":false,"has3DTour":false,"hasLift":false,"hasPlan":false,"hasStaging":false,"hasVideo":false,"latitude":40.3791752,"longitude":-3.626194,"municipality":"Madrid","neighborhood":"Casco Hist\u00f3rico de Vallecas","newDevelopment":false,"numPhotos":21,"operation":"sale","parkingSpace":null,"price":105000.0,"priceByArea":1544.0,"propertyCode":"91439862","propertyType":"flat","province":"Madrid","rooms":3,"showAddress":false,"size":68.0,"status":"good","suggestedTexts":{"subtitle":"Casco Hist\u00f3rico de Vallecas, Madrid","title":"Piso en Calle Puerto de Alazores"},"thumbnail":"https:\/\/img3.idealista.com\/blur\/WEB_LISTING\/0\/id.pro.es.image.master\/aa\/2d\/3a\/814633423.jpg","topNewDevelopment":false,"url":"https:\/\/www.idealista.com\/inmueble\/91439862\/"}
{"address":"Carretera Villaverde a Vallecas","bathrooms":1,"country":"es","detailedType":{"typology":"flat"},"district":"Villa de Vallecas","exterior":true,"externalReference":null,"floor":"1","has360":false,"has3DTour":false,"hasLift":true,"hasPlan":false,"hasStaging":false,"hasVideo":false,"latitude":40.37416,"longitude":-3.63272,"municipality":"Madrid","neighborhood":"Ensanche de Vallecas - La Gavia","newDevelopment":false,"numPhotos":20,"operation":"sale","parkingSpace":{"hasParkingSpace":true,"isParkingSpaceIncludedInPrice":true},"price":96000.0,"priceByArea":1920.0,"propertyCode":"91278692","propertyType":"flat","province":"Madrid","rooms":1,"showAddress":false,"size":50.0,"status":"good","suggestedTexts":{"subtitle":"Ensanche de Vallecas - La Gavia, Madrid","title":"Piso en Carretera Villaverde a Vallecas"},"thumbnail":"https:\/\/img3.idealista.com\/blur\/WEB_LISTING\/0\/id.pro.es.image.master\/2c\/f8\/70\/810891493.jpg","topNewDevelopment":false,"url":"https:\/\/www.idealista.com\/inmueble\/91278692\/"}
{"address":"barrio Casco Hist\u00f3rico de Vallecas","bathrooms":1,"country":"es","detailedType":{"typology":"flat"},"district":"Villa de Vallecas","exterior":true,"externalReference":"FHOG-1286","floor":"3","has360":false,"has3DTour":false,"hasLift":false,"hasPlan":false,"hasStaging":false,"hasVideo":false,"latitude":40.3759403,"longitude":-3.6223311,"municipality":"Madrid","neighborhood":"Casco Hist\u00f3rico de Vallecas","newDevelopment":false,"numPhotos":18,"operation":"sale","parkingSpace":null,"price":99500.0,"priceByArea":1843.0,"propertyCode":"92112492","propertyType":"flat","province":"Madrid","rooms":2,"showAddress":false,"size":54.0,"status":"good","suggestedTexts":{"subtitle":"Casco Hist\u00f3rico de Vallecas, Madrid","title":"Piso"},"thumbnail":"https:\/\/img3.idealista.com\/blur\/WEB_LISTING\/0\/id.pro.es.image.master\/46\/46\/ff\/831251405.jpg","topNewDevelopment":false,"url":"https:\/\/www.idealista.com\/inmueble\/92112492\/"}
{"address":"Calle Cerro del Murmullo, 11","bathrooms":1,"country":"es","detailedType":{"typology":"flat","subTypology":"duplex"},"district":"Villa de Vallecas","exterior":true,"externalReference":"Murmullo 2\u00ba duplex","floor":"2","has360":false,"has3DTour":false,"hasLift":true,"hasPlan":false,"hasStaging":false,"hasVideo":false,"latitude":40.3647738,"longitude":-3.5836759,"municipality":"Madrid","neighborhood":"Ensanche de Vallecas - La Gavia","newDevelopment":false,"numPhotos":14,"operation":"sale","parkingSpace":{"hasParkingSpace":true,"isParkingSpaceIncludedInPrice":true},"price":110000.0,"priceByArea":1803.0,"propertyCode":"90927389","propertyType":"duplex","province":"Madrid","rooms":1,"showAddress":true,"size":61.0,"status":"good","suggestedTexts":{"subtitle":"Ensanche de Vallecas - La Gavia, Madrid","title":"D\u00faplex en Calle Cerro del Murmullo, 11"},"thumbnail":"https:\/\/img3.idealista.com\/blur\/WEB_LISTING\/0\/id.pro.es.image.master\/de\/22\/80\/802317127.jpg","topNewDevelopment":false,"url":"https:\/\/www.idealista.com\/inmueble\/90927389\/"}
{"address":"Calle Cerro del Murmullo, 11","bathrooms":1,"country":"es","detailedType":{"typology":"flat","subTypology":"studio"},"district":"Villa de Vallecas","exterior":true,"externalReference":"Murmullo 1\u00ba","floor":"1","has360":false,"has3DTour":false,"hasLift":true,"hasPlan":false,"hasStaging":false,"hasVideo":false,"latitude":40.3647738,"longitude":-3.5836759,"municipality":"Madrid","neighborhood":"Ensanche de Vallecas - La Gavia","newDevelopment":false,"numPhotos":12,"operation":"sale","parkingSpace":{"hasParkingSpace":true,"isParkingSpaceIncludedInPrice":true},"price":90000.0,"priceByArea":1765.0,"propertyCode":"90927345","propertyType":"studio","province":"Madrid","rooms":0,"showAddress":true,"size":51.0,"status":"good","suggestedTexts":{"subtitle":"Ensanche de Vallecas - La Gavia, Madrid","title":"Estudio en Calle Cerro del Murmullo, 11"},"thumbnail":"https:\/\/img3.idealista.com\/blur\/WEB_LISTING\/90\/id.pro.es.image.master\/56\/6b\/76\/802315644.jpg","topNewDevelopment":false,"url":"https:\/\/www.idealista.com\/inmueble\/90927345\/"}
{"address":"Calle Puerto de las Pilas, 8","bathrooms":1,"country":"es","detailedType":{"typology":"flat"},"district":"Villa de Vallecas","exterior":false,"externalReference":"SRB_SOLVIA_47392","floor":"3","has360":false,"has3DTour":false,"hasLift":false,"hasPlan":false,"hasStaging":false,"hasVideo":false,"latitude":40.3790625,"longitude":-3.6271656,"municipality":"Madrid","neighborhood":"Casco Hist\u00f3rico de Vallecas","newDevelopment":false,"numPhotos":8,"operation":"sale","parkingSpace":null,"price":102000.0,"priceByArea":1417.0,"propertyCode":"84391240","propertyType":"flat","province":"Madrid","rooms":3,"showAddress":true,"size":72.0,"status":"good","suggestedTexts":{"subtitle":"Casco Hist\u00f3rico de Vallecas, Madrid","title":"Piso en Calle Puerto de las Pilas, 8"},"thumbnail":"https:\/\/img3.idealista.com\/blur\/WEB_LISTING\/0\/id.pro.es.image.master\/7f\/4d\/60\/661716126.jpg","topNewDevelopment":false,"url":"https:\/\/www.idealista.com\/inmueble\/84391240\/"}
{"address":"Carretera Villaverde a Vallecas","bathrooms":1,"country":"es","detailedType":{"typology":"flat"},"district":"Villa de Vallecas","exterior":false,"externalReference":"7298192","floor":"4","has360":false,"has3DTour":false,"hasLift":false,"hasPlan":false,"hasStaging":false,"hasVideo":false,"latitude":40.37376,"longitude":-3.63272,"municipality":"Madrid","neighborhood":"Ensanche de Vallecas - La Gavia","newDevelopment":false,"numPhotos":5,"operation":"sale","parkingSpace":null,"price":110942.0,"priceByArea":2311.0,"propertyCode":"89362948","propertyType":"flat","province":"Madrid","rooms":1,"showAddress":false,"size":48.0,"status":"good","suggestedTexts":{"subtitle":"Ensanche de Vallecas - La Gavia, Madrid","title":"Piso en Carretera Villaverde a Vallecas"},"thumbnail":"https:\/\/img3.idealista.com\/blur\/WEB_LISTING\/0\/id.pro.es.image.master\/ab\/08\/6c\/769860015.jpg","topNewDevelopment":false,"url":"https:\/\/www.idealista.com\/inmueble\/89362948\/"}
{"address":"barrio Casco Hist\u00f3rico de Vallecas","bathrooms":1,"country":"es","detailedType":{"typology":"flat"},"district":"Villa de Vallecas","exterior":true,"externalReference":"VM-DI03","floor":"bj","has360":false,"has3DTour":false,"hasLift":false,"hasPlan":false,"hasStaging":false,"hasVideo":false,"latitude":40.3742215,"longitude":-3.6177523,"municipality":"Madrid","neighborhood":"Casco Hist\u00f3rico de Vallecas","newDevelopment":false,"numPhotos":13,"operation":"sale","parkingSpace":null,"price":95000.0,"priceByArea":1979.0,"propertyCode":"91748460","propertyType":"flat","province":"Madrid","rooms":2,"showAddress":false,"size":48.0,"status":"good","suggestedTexts":{"subtitle":"Casco Hist\u00f3rico de Vallecas, Madrid","title":"Piso"},"thumbnail":"https:\/\/img3.idealista.com\/blur\/WEB_LISTING\/0\/id.pro.es.image.master\/99\/5b\/c4\/822311877.jpg","topNewDevelopment":false,"url":"https:\/\/www.idealista.com\/inmueble\/91748460\/"}
{"address":"Calle Francisco Fatou, 22 -26","bathrooms":1,"country":"es","detailedType":{"typology":"flat"},"district":"Villa de Vallecas","exterior":false,"externalReference":"ANF0001##ANF0001_0053_PE0001","floor":null,"has360":false,"has3DTour":false,"hasLift":null,"hasPlan":false,"hasStaging":false,"hasVideo":false,"latitude":40.3821751,"longitude":-3.6212203,"municipality":"Madrid","neighborhood":"Casco Hist\u00f3rico de Vallecas","newDevelopment":false,"numPhotos":9,"operation":"sale","parkingSpace":null,"price":110500.0,"priceByArea":1754.0,"propertyCode":"91372479","propertyType":"flat","province":"Madrid","rooms":3,"showAddress":true,"size":63.0,"status":"good","suggestedTexts":{"subtitle":"Casco Hist\u00f3rico de Vallecas, Madrid","title":"Piso en Calle Francisco Fatou, 22 -26"},"thumbnail":"https:\/\/img3.idealista.com\/blur\/WEB_LISTING\/0\/id.pro.es.image.master\/0a\/bf\/f5\/813039574.jpg","topNewDevelopment":false,"url":"https:\/\/www.idealista.com\/inmueble\/91372479\/"}
{"address":"cerro del murmullo, 13","bathrooms":1,"country":"es","detailedType":{"typology":"flat","subTypology":"studio"},"district":"Villa de Vallecas","exterior":true,"externalReference":"atico229","floor":"4","has360":false,"has3DTour":false,"hasLift":true,"hasPlan":false,"hasStaging":false,"hasVideo":false,"latitude":40.3645751,"longitude":-3.5833714,"municipality":"Madrid","neighborhood":"Ensanche de Vallecas - La Gavia","newDevelopment":false,"numPhotos":20,"operation":"sale","parkingSpace":{"hasParkingSpace":true,"isParkingSpaceIncludedInPrice":true},"price":110000.0,"priceByArea":2000.0,"propertyCode":"91535003","propertyType":"studio","province":"Madrid","rooms":0,"showAddress":true,"size":55.0,"status":"good","suggestedTexts":{"subtitle":"Ensanche de Vallecas - La Gavia, Madrid","title":"Estudio en cerro del murmullo, 13"},"thumbnail":"https:\/\/img3.idealista.com\/blur\/WEB_LISTING\/0\/id.pro.es.image.master\/e6\/93\/10\/832475982.jpg","topNewDevelopment":false,"url":"https:\/\/www.idealista.com\/inmueble\/91535003\/"}
{"address":"Calle de Sierra Gorda","bathrooms":1,"country":"es","detailedType":{"typology":"flat"},"district":"Villa de Vallecas","exterior":false,"externalReference":"5950380","floor":null,"has360":false,"has3DTour":false,"hasLift":false,"hasPlan":false,"hasStaging":false,"hasVideo":false,"latitude":40.3795404,"longitude":-3.6191927,"municipality":"Madrid","neighborhood":"Casco Hist\u00f3rico de Vallecas","newDevelopment":false,"numPhotos":5,"operation":"sale","parkingSpace":null,"price":111510.0,"priceByArea":1640.0,"propertyCode":"91631184","propertyType":"flat","province":"Madrid","rooms":2,"showAddress":false,"size":68.0,"status":"good","suggestedTexts":{"subtitle":"Casco Hist\u00f3rico de Vallecas, Madrid","title":"Piso en Calle de Sierra Gorda"},"thumbnail":"https:\/\/img3.idealista.com\/blur\/WEB_LISTING\/0\/id.pro.es.image.master\/3e\/42\/06\/819888411.jpg","topNewDevelopment":false,"url":"https:\/\/www.idealista.com\/inmueble\/91631184\/"}
{"address":"Carretera Villaverde a Vallecas","bathrooms":1,"country":"es","detailedType":{"typology":"flat"},"district":"Villa de Vallecas","exterior":false,"externalReference":"4720753","floor":null,"has360":false,"has3DTour":false,"hasLift":false,"hasPlan":false,"hasStaging":false,"hasVideo":false,"latitude":40.37566,"longitude":-3.63462,"municipality":"Madrid","neighborhood":"Ensanche de Vallecas - La Gavia","newDevelopment":false,"numPhotos":5,"operation":"sale","parkingSpace":null,"price":111274.0,"priceByArea":1952.0,"propertyCode":"91043536","propertyType":"flat","province":"Madrid","rooms":1,"showAddress":false,"size":57.0,"status":"good","suggestedTexts":{"subtitle":"Ensanche de Vallecas - La Gavia, Madrid","title":"Piso en Carretera Villaverde a Vallecas"},"thumbnail":"https:\/\/img3.idealista.com\/blur\/WEB_LISTING\/0\/id.pro.es.image.master\/9e\/50\/e5\/805551203.jpg","topNewDevelopment":false,"url":"https:\/\/www.idealista.com\/inmueble\/91043536\/"}
{"address":"Calle de Sierra Gorda","bathrooms":1,"country":"es","detailedType":{"typology":"flat"},"district":"Villa de Vallecas","exterior":false,"externalReference":"550020342","floor":null,"has360":false,"has3DTour":false,"hasLift":false,"hasPlan":false,"hasStaging":false,"hasVideo":false,"latitude":40.3790404,"longitude":-3.6168927,"municipality":"Madrid","neighborhood":"Casco Hist\u00f3rico de Vallecas","newDevelopment":false,"numPhotos":5,"operation":"sale","parkingSpace":null,"price":111510.0,"priceByArea":1640.0,"propertyCode":"91688846","propertyType":"flat","province":"Madrid","rooms":2,"showAddress":false,"size":68.0,"status":"good","suggestedTexts":{"subtitle":"Casco Hist\u00f3rico de Vallecas, Madrid","title":"Piso en Calle de Sierra Gorda"},"thumbnail":"https:\/\/img3.idealista.com\/blur\/WEB_LISTING\/0\/id.pro.es.image.master\/d3\/e8\/1d\/820840190.jpg","topNewDevelopment":false,"url":"https:\/\/www.idealista.com\/inmueble\/91688846\/"}
{"address":"Calle Puerto de Lumbreras","bathrooms":1,"country":"es","detailedType":{"typology":"flat"},"district":"Villa de Vallecas","exterior":true,"externalReference":null,"floor":"1","has360":false,"has3DTour":false,"hasLift":false,"hasPlan":false,"hasStaging":false,"hasVideo":false,"latitude":40.3803258,"longitude":-3.6197215,"municipality":"Madrid","neighborhood":"Casco Hist\u00f3rico de Vallecas","newDevelopment":false,"numPhotos":10,"operation":"sale","parkingSpace":null,"price":114500.0,"priceByArea":1762.0,"propertyCode":"90443212","propertyType":"flat","province":"Madrid","rooms":2,"showAddress":false,"size":65.0,"status":"good","suggestedTexts":{"subtitle":"Casco Hist\u00f3rico de Vallecas, Madrid","title":"Piso en Calle Puerto de Lumbreras"},"thumbnail":"https:\/\/img3.idealista.com\/blur\/WEB_LISTING\/0\/id.pro.es.image.master\/66\/ef\/c6\/790592015.jpg","topNewDevelopment":false,"url":"https:\/\/www.idealista.com\/inmueble\/90443212\/"}
{"address":"Calle Puerto de Lumbreras, 26","bathrooms":1,"country":"es","detailedType":{"typology":"flat"},"district":"Villa de Vallecas","exterior":false,"externalReference":"60586445","floor":"1","has360":false,"has3DTour":false,"hasLift":null,"hasPlan":false,"hasStaging":false,"hasVideo":false,"latitude":40.3814017,"longitude":-3.6191376,"municipality":"Madrid","neighborhood":"Casco Hist\u00f3rico de Vallecas","newDevelopment":false,"numPhotos":2,"operation":"sale","parkingSpace":null,"price":98000.0,"priceByArea":1885.0,"propertyCode":"88686454","propertyType":"flat","province":"Madrid","rooms":2,"showAddress":true,"size":52.0,"status":"good","suggestedTexts":{"subtitle":"Casco Hist\u00f3rico de Vallecas, Madrid","title":"Piso en Calle Puerto de Lumbreras, 26"},"thumbnail":"https:\/\/img3.idealista.com\/blur\/WEB_LISTING\/0\/id.pro.es.image.master\/7c\/a6\/d6\/780911060.jpg","topNewDevelopment":false,"url":"https:\/\/www.idealista.com\/inmueble\/88686454\/"}
{"address":"Calle de Puentelarra, 37","bathrooms":1,"country":"es","detailedType":{"typology":"flat"},"district":"Villa de Vallecas","exterior":true,"externalReference":"V-0247","floor":"bj","has360":false,"has3DTour":false,"hasLift":false,"hasPlan":false,"hasStaging":false,"hasVideo":false,"latitude":40.379486,"longitude":-3.6093717,"municipality":"Madrid","neighborhood":"Santa Eugenia","newDevelopment":false,"numPhotos":1,"operation":"sale","parkingSpace":null,"price":105000.0,"priceByArea":1981.0,"propertyCode":"91452467","propertyType":"flat","province":"Madrid","rooms":2,"showAddress":true,"size":53.0,"status":"renew","suggestedTexts":{"subtitle":"Santa Eugenia, Madrid","title":"Piso en Calle de Puentelarra, 37"},"thumbnail":"https:\/\/img3.idealista.com\/blur\/WEB_LISTING\/0\/id.pro.es.image.master\/8d\/45\/82\/814941427.jpg","topNewDevelopment":false,"url":"https:\/\/www.idealista.com\/inmueble\/91452467\/"}
{"address":"Real de Arganda","bathrooms":1,"country":"es","detailedType":{"typology":"flat"},"district":"Villa de Vallecas","exterior":true,"externalReference":"00648","floor":"2","has360":false,"has3DTour":false,"hasLift":true,"hasPlan":false,"hasStaging":false,"hasVideo":false,"latitude":40.3798919,"longitude":-3.6177132,"municipality":"Madrid","neighborhood":"Casco Hist\u00f3rico de Vallecas","newDevelopment":false,"numPhotos":8,"operation":"sale","parkingSpace":null,"price":105000.0,"priceByArea":2692.0,"propertyCode":"88836654","propertyType":"flat","province":"Madrid","rooms":1,"showAddress":false,"size":39.0,"status":"good","suggestedTexts":{"subtitle":"Casco Hist\u00f3rico de Vallecas, Madrid","title":"Piso en Real de Arganda"},"thumbnail":"https:\/\/img3.idealista.com\/blur\/WEB_LISTING\/0\/id.pro.es.image.master\/ea\/7b\/50\/756638112.jpg","topNewDevelopment":false,"url":"https:\/\/www.idealista.com\/inmueble\/88836654\/"}
{"address":"Sierra del Gor","bathrooms":1,"country":"es","detailedType":{"typology":"flat"},"district":"Villa de Vallecas","exterior":true,"externalReference":"6812092","floor":"3","has360":false,"has3DTour":false,"hasLift":false,"hasPlan":false,"hasStaging":false,"hasVideo":false,"latitude":40.3785084,"longitude":-3.6163438,"municipality":"Madrid","neighborhood":"Casco Hist\u00f3rico de Vallecas","newDevelopment":false,"numPhotos":0,"operation":"sale","parkingSpace":null,"price":114760.0,"priceByArea":1510.0,"propertyCode":"92218680","propertyType":"flat","province":"Madrid","rooms":3,"showAddress":false,"size":76.0,"status":"good","suggestedTexts":{"subtitle":"Casco Hist\u00f3rico de Vallecas, Madrid","title":"Piso en Sierra del Gor"},"thumbnail":null,"topNewDevelopment":false,"url":"https:\/\/www.idealista.com\/inmueble\/92218680\/"}